{
  "aix-qui": {
    "name": "Aix Qui ?",
    "slug": "aix-qui",
    "street_address": "ancien, Chemin du Coton Rouge, 13100 Aix-en-Provence, France",
    "postal_code": "13100",
    "city": "Aix-En-Provence",
    "latitude": 43.5122969,
    "longitude": 5.4546886,
    "source_url": "https://shotgun.live/fr/venues/aixqui"
  },
  "baby-club": {
    "name": "Baby club",
    "slug": "baby-club",
    "street_address": "2 Rue André Poggioli, 13006 Marseille, France",
    "postal_code": "13006",
    "city": "Marseille",
    "latitude": 43.2940988,
    "longitude": 5.3854241,
    "source_url": "https://shotgun.live/fr/venues/baby-club"
  },
  "black-angus": {
    "name": "Black Angus",
    "slug": "black-angus",
    "street_address": "195 Route des Trois Lucs à la Valentine, 13011 Marseille, France",
    "postal_code": "13011",
    "city": "Marseille",
    "latitude": 43.3018724,
    "longitude": 5.4771667,
    "source_url": "https://shotgun.live/fr/venues/black-angus"
  },
  "blaisy-records": {
    "name": "Blaisy Records",
    "slug": "blaisy-records",
    "street_address": "44 Boulevard Jacques Saadé, 13002 Marseille, France",
    "postal_code": "13002",
    "city": "Marseille",
    "latitude": 43.2999822,
    "longitude": 5.3642638,
    "source_url": "https://shotgun.live/fr/venues/blaisy-records"
  },
  "boum-marseille": {
    "name": "BOUM Marseille",
    "slug": "boum-marseille",
    "street_address": "21 Rue André Poggioli, 13006 Marseille, France",
    "postal_code": "13006",
    "city": "Marseille",
    "latitude": 43.2934532,
    "longitude": 5.3852521,
    "source_url": "https://shotgun.live/fr/venues/boum-marseille"
  },
  "cabaret-aleatoire": {
    "name": "Cabaret Aléatoire",
    "slug": "cabaret-aleatoire",
    "street_address": "41 Rue Jobin, 13003 Marseille, France",
    "postal_code": "13003",
    "city": "Marseille",
    "latitude": 43.309633,
    "longitude": 5.3903188,
    "source_url": "https://shotgun.live/fr/venues/cabaretaleatoire"
  },
  "danceteria": {
    "name": "danceteria",
    "slug": "danceteria",
    "street_address": "18 Rue Saint-Saëns, 13001 Marseille, France",
    "postal_code": "13001",
    "city": "Marseille",
    "latitude": 43.2938344,
    "longitude": 5.3751483,
    "source_url": "https://shotgun.live/fr/venues/danceteria"
  },
  "derapage": {
    "name": "Dérapage",
    "slug": "derapage",
    "street_address": "1 Boulevard Pierre Toesca, 83000 Toulon, France",
    "postal_code": "83000",
    "city": "Toulon",
    "latitude": 43.1285133,
    "longitude": 5.9277915,
    "source_url": "https://shotgun.live/fr/venues/derapage"
  },
  "domaine-la-ferme-hi-bride": {
    "name": "domaine la ferme hi bride",
    "slug": "domaine-la-ferme-hi-bride",
    "street_address": "la tour de ferrier, 2268 Route d'Ansouis, 84530 Villelaure, France",
    "postal_code": "84530",
    "city": "Villelaure",
    "latitude": 43.7276023,
    "longitude": 5.4412751,
    "source_url": "https://shotgun.live/fr/venues/domaine-la-ferme-hi-bride"
  },
  "esquina-tropical": {
    "name": "Esquina tropical",
    "slug": "esquina-tropical",
    "street_address": "41 Bd Michelet Centre commercial Prado Shopping, 3ème étage, 13008 Marseille, France",
    "postal_code": "13008",
    "city": "Marseille",
    "latitude": 43.2700267,
    "longitude": 5.3936317,
    "source_url": "https://shotgun.live/fr/venues/esquina-tropical"
  },
  "ipn-aix-en-provence": {
    "name": "IPN Aix-en-Provence",
    "slug": "ipn-aix-en-provence",
    "street_address": "23 Cours Sextius, 13100 Aix-en-Provence, France",
    "postal_code": "13100",
    "city": "Aix-En-Provence",
    "latitude": 43.5288065,
    "longitude": 5.4440602,
    "source_url": "https://shotgun.live/fr/venues/ipnaix"
  },
  "jardins-suspendus": {
    "name": "Jardins Suspendus",
    "slug": "jardins-suspendus",
    "street_address": "12 Boulevard Jacques Saadé, 13002 Marseille, France",
    "postal_code": "13002",
    "city": "Marseille",
    "latitude": 43.2994776,
    "longitude": 5.3640006,
    "source_url": "https://shotgun.live/fr/venues/jardins-suspendus"
  },
  "lamuse-gueule-comedy-club": {
    "name": "L’amuse gueule Comedy club",
    "slug": "lamuse-gueule-comedy-club",
    "street_address": "123 Cours Lieutaud, 13006 Marseille, France",
    "postal_code": "13006",
    "city": "Marseille",
    "latitude": 43.2882067,
    "longitude": 5.3848611,
    "source_url": "https://shotgun.live/fr/venues/l-amuse-gueule-comedy-club"
  },
  "le-bouge-marseille": {
    "name": "Le Bouge Marseille",
    "slug": "le-bouge-marseille",
    "street_address": "21 Cours Honoré d'Estienne d'Orves, 13001 Marseille, France",
    "postal_code": "13001",
    "city": "Marseille",
    "latitude": 43.2926142,
    "longitude": 5.37373,
    "source_url": "https://shotgun.live/fr/venues/le-bouge-marseille"
  },
  "le-chapiteau-marseille": {
    "name": "Le Chapiteau - marseille",
    "slug": "le-chapiteau-marseille",
    "street_address": "38 Traverse Notre Dame du Bon Secours, 13003 Marseille, France",
    "postal_code": "13003",
    "city": "Marseille",
    "latitude": 43.3148239,
    "longitude": 5.3862458,
    "source_url": "https://shotgun.live/fr/venues/le-chapiteau-marseille"
  },
  "le-makeda": {
    "name": "Le Makeda",
    "slug": "le-makeda",
    "street_address": "103 Rue Ferrari, 13005 Marseille, France",
    "postal_code": "13005",
    "city": "Marseille",
    "latitude": 43.2932951,
    "longitude": 5.3918093,
    "source_url": "https://shotgun.live/fr/venues/le-makeda"
  },
  "le-marzac": {
    "name": "LE MARZAC",
    "slug": "le-marzac",
    "street_address": "21 Cours Honoré d'Estienne d'Orves, 13001 Marseille, France",
    "postal_code": "13001",
    "city": "Marseille",
    "latitude": 43.2926142,
    "longitude": 5.37373,
    "source_url": "https://shotgun.live/fr/venues/le-marzac"
  },
  "le-nucleaire-marseille": {
    "name": "Le Nucléaire Marseille",
    "slug": "le-nucleaire-marseille",
    "street_address": "15 Rue André Poggioli, 13006 Marseille, France",
    "postal_code": "13006",
    "city": "Marseille",
    "latitude": 43.2936524,
    "longitude": 5.3853954,
    "source_url": "https://shotgun.live/fr/venues/le-nucleaire-marseille"
  },
  "mama-shelter-marseille": {
    "name": "MAMA SHELTER - MARSEILLE",
    "slug": "mama-shelter-marseille",
    "street_address": "64 Rue de la Loubière, 13006 Marseille, France",
    "postal_code": "13006",
    "city": "Marseille",
    "latitude": 43.2905044,
    "longitude": 5.3888934,
    "source_url": "https://shotgun.live/fr/venues/mama-shelter-marseille"
  },
  "manray-club": {
    "name": "Manray club",
    "slug": "manray-club",
    "street_address": "38 Rue Saint-Saëns, 13001 Marseille, France",
    "postal_code": "13001",
    "city": "Marseille",
    "latitude": 43.2932522,
    "longitude": 5.3725898,
    "source_url": "https://shotgun.live/fr/venues/manrayclub"
  },
  "naho-club": {
    "name": "NAHO CLUB",
    "slug": "naho-club",
    "street_address": "116 Avenue de Digne, 83130 La Garde, France",
    "postal_code": "83130",
    "city": "La Garde",
    "latitude": 43.1480535,
    "longitude": 6.0353305,
    "source_url": "https://shotgun.live/fr/venues/naho-club"
  },
  "pluriels": {
    "name": "pluriels",
    "slug": "pluriels",
    "street_address": "31 Rue d'Endoume, 13007 Marseille, France",
    "postal_code": "13007",
    "city": "Marseille",
    "latitude": 43.290356,
    "longitude": 5.3664955,
    "source_url": "https://shotgun.live/fr/venues/pluriels"
  },
  "purple-bar-a-cocktails-dansant": {
    "name": "Purple - Bar à cocktails dansant",
    "slug": "purple-bar-a-cocktails-dansant",
    "street_address": "54 Avenue de Montredon, 13008 Marseille, France",
    "postal_code": "13008",
    "city": "Marseille",
    "latitude": 43.2442546,
    "longitude": 5.3705255,
    "source_url": "https://shotgun.live/fr/venues/purple-bar-a-cocktails-dansant"
  },
  "r2-le-rooftop": {
    "name": "R2 LE ROOFTOP",
    "slug": "r2-le-rooftop",
    "street_address": "9 Quai du Lazaret, 13002 Marseille, France",
    "postal_code": "13002",
    "city": "Marseille",
    "latitude": 43.3067576,
    "longitude": 5.364598,
    "source_url": "https://shotgun.live/fr/venues/r2-le-rooftop"
  },
  "soweto-l-esprit-sl": {
    "name": "Soweto L'esprit SL",
    "slug": "soweto-l-esprit-sl",
    "street_address": "2742 Avenue Président John Kennedy, 83140 Six-Fours-les-Plages, France",
    "postal_code": "83140",
    "city": "Six-Fours-Les-Plages",
    "latitude": 43.107751,
    "longitude": 5.8436979,
    "source_url": "https://shotgun.live/fr/venues/soweto-l-esprit-sl"
  },
  "sunny-comedy-club": {
    "name": "SUNNY COMEDY CLUB",
    "slug": "sunny-comedy-club",
    "street_address": "5 Rue Jean-Marc Cathala, 13002 Marseille, France",
    "postal_code": "13002",
    "city": "Marseille",
    "latitude": 43.301299,
    "longitude": 5.3711523,
    "source_url": "https://shotgun.live/fr/venues/sunny-comedy-club"
  },
  "tandem-scene-de-musiques-actuelles-departementale": {
    "name": "Tandem Scène de Musiques Actuelles départementale",
    "slug": "tandem-scene-de-musiques-actuelles-departementale",
    "street_address": "100 Avenue Maréchal de Lattre de Tassigny, 83140 Six-Fours-les-Plages, France",
    "postal_code": "83140",
    "city": "Six-Fours-Les-Plages",
    "latitude": 43.0936971,
    "longitude": 5.8430383,
    "source_url": "https://shotgun.live/fr/venues/tandem-scene-de-musiques-actuelles-departementale"
  },
  "transverse-club": {
    "name": "Transverse Club",
    "slug": "transverse-club",
    "street_address": "24 Quai de Rive Neuve, 13007 Marseille, France",
    "postal_code": "13007",
    "city": "Marseille",
    "latitude": 43.2928749,
    "longitude": 5.3696364,
    "source_url": "https://shotgun.live/fr/venues/transverse-club"
  },
  "unite-22": {
    "name": "Unité.22",
    "slug": "unite-22",
    "street_address": "22 Rue Jobin, 13003 Marseille, France",
    "postal_code": "13003",
    "city": "Marseille",
    "latitude": 43.3105232,
    "longitude": 5.389208,
    "source_url": "https://shotgun.live/fr/venues/unite-22"
  },
  "vendettek": {
    "name": "VENDETTEK",
    "slug": "vendettek",
    "street_address": "12, 14 Place Notre Dame du Mont, 13006 Marseille, France",
    "postal_code": "13006",
    "city": "Marseille",
    "latitude": 43.2919451,
    "longitude": 5.3837512,
    "source_url": "https://shotgun.live/fr/venues/vendettek"
  },
  "vertigo-marseille": {
    "name": "Vertigo Marseille",
    "slug": "vertigo-marseille",
    "street_address": "75 Rue Sainte, 13007 Marseille, France",
    "postal_code": "13007",
    "city": "Marseille",
    "latitude": 43.2915848,
    "longitude": 5.3716131,
    "source_url": "https://shotgun.live/fr/venues/vertigo-marseille"
  },
  "vice-versa-marseille": {
    "name": "vice.versa.marseille",
    "slug": "vice-versa-marseille",
    "street_address": "40 Rue des Trois Rois, 13006 Marseille, France",
    "postal_code": "13006",
    "city": "Marseille",
    "latitude": 43.293427,
    "longitude": 5.3850598,
    "source_url": "https://shotgun.live/fr/venues/vice-versa-marseille"
  },
  "zonazu": {
    "name": "ZONAZU 🇧🇷",
    "slug": "zonazu",
    "street_address": "1 Rue des Trois Rois, 13006 Marseille, França",
    "postal_code": "13006",
    "city": "Marseille",
    "latitude": 43.2944966,
    "longitude": 5.3846011,
    "source_url": "https://shotgun.live/fr/venues/zonazu"
  }
}