{
  "adjm-event-marseille": {
    "name": "ADJM Event Marseille",
    "slug": "adjm-event-marseille",
    "street_address": "30 Rue de la Paix Marcel Paul, 13001 Marseille, France",
    "postal_code": "13001",
    "city": "Marseille",
    "latitude": 43.2922041,
    "longitude": 5.3727078,
    "source_url": "https://shotgun.live/fr/venues/adjm-event"
  },
  "baby-club": {
    "name": "Baby club",
    "slug": "baby-club",
    "street_address": "2 Rue André Poggioli, 13006 Marseille, France",
    "postal_code": "13006",
    "city": "Marseille",
    "latitude": 43.2940988,
    "longitude": 5.3854241,
    "source_url": "https://shotgun.live/fr/venues/baby-club"
  },
  "boum-marseille": {
    "name": "BOUM Marseille",
    "slug": "boum-marseille",
    "street_address": "21 Rue André Poggioli, 13006 Marseille, France",
    "postal_code": "13006",
    "city": "Marseille",
    "latitude": 43.2934532,
    "longitude": 5.3852521,
    "source_url": "https://shotgun.live/fr/venues/boum-marseille"
  },
  "cabaret-aleatoire": {
    "name": "Cabaret Aléatoire",
    "slug": "cabaret-aleatoire",
    "street_address": "41 Rue Jobin, 13003 Marseille, France",
    "postal_code": "13003",
    "city": "Marseille",
    "latitude": 43.31048,
    "longitude": 5.3901924,
    "source_url": "https://shotgun.live/fr/venues/cabaretaleatoire"
  },
  "danceteria": {
    "name": "danceteria",
    "slug": "danceteria",
    "street_address": "18 Rue Saint-Saëns, 13001 Marseille, France",
    "postal_code": "13001",
    "city": "Marseille",
    "latitude": 43.2938344,
    "longitude": 5.3751483,
    "source_url": "https://shotgun.live/fr/venues/danceteria"
  },
  "esquina-tropical": {
    "name": "Esquina tropical",
    "slug": "esquina-tropical",
    "street_address": "41 Bd Michelet Centre commercial Prado Shopping, 3ème étage, 13008 Marseille, France",
    "postal_code": "13008",
    "city": "Marseille",
    "latitude": 43.2700267,
    "longitude": 5.3936317,
    "source_url": "https://shotgun.live/fr/venues/esquina-tropical"
  },
  "gellor-events": {
    "name": "GELLOR EVENTS",
    "slug": "gellor-events",
    "street_address": "44 Rue Saint-Saëns, 13001 Marseille, France",
    "postal_code": "13001",
    "city": "Marseille",
    "latitude": 43.2931859,
    "longitude": 5.3720769,
    "source_url": "https://shotgun.live/fr/venues/gellor-events"
  },
  "ipn-aix-en-provence": {
    "name": "IPN Aix-en-Provence",
    "slug": "ipn-aix-en-provence",
    "street_address": "23 Cours Sextius, 13100 Aix-en-Provence, France",
    "postal_code": "13100",
    "city": "Aix-En-Provence",
    "latitude": 43.5288065,
    "longitude": 5.4440602,
    "source_url": "https://shotgun.live/fr/venues/ipnaix"
  },
  "jam-promotion": {
    "name": "jam promotion",
    "slug": "jam-promotion",
    "street_address": "160 Rue Pascal Duverger, 13090 Aix-en-Provence, France",
    "postal_code": "13090",
    "city": "Aix-En-Provence",
    "latitude": 43.51852,
    "longitude": 5.422829,
    "source_url": "https://shotgun.live/fr/venues/jam-promotion"
  },
  "kollectif-kharma": {
    "name": "Kollectif Kharma",
    "slug": "kollectif-kharma",
    "street_address": "70 Rue Beauvoisin, 13290 Aix-en-Provence, France",
    "postal_code": "13290",
    "city": "Aix-En-Provence",
    "latitude": 43.5072746,
    "longitude": 5.405878,
    "source_url": "https://shotgun.live/fr/venues/kollectif-kharma"
  },
  "la-traverse-de-balkis": {
    "name": "La Traverse De Balkis",
    "slug": "la-traverse-de-balkis",
    "street_address": "1 Rue des Trois Rois, 13006 Marseille, France",
    "postal_code": "13006",
    "city": "Marseille",
    "latitude": 43.2944966,
    "longitude": 5.3846011,
    "source_url": "https://shotgun.live/fr/venues/la-traverse-de-balkis"
  },
  "le-bouge-marseille": {
    "name": "Le Bouge Marseille",
    "slug": "le-bouge-marseille",
    "street_address": "21 Cours Honoré d'Estienne d'Orves, 13001 Marseille, France",
    "postal_code": "13001",
    "city": "Marseille",
    "latitude": 43.2926142,
    "longitude": 5.37373,
    "source_url": "https://shotgun.live/fr/venues/le-bouge-marseille"
  },
  "le-chapiteau-marseille": {
    "name": "Le Chapiteau - marseille",
    "slug": "le-chapiteau-marseille",
    "street_address": "38 Traverse Notre Dame du Bon Secours, 13003 Marseille, France",
    "postal_code": "13003",
    "city": "Marseille",
    "latitude": 43.3148239,
    "longitude": 5.3862458,
    "source_url": "https://shotgun.live/fr/venues/le-chapiteau-marseille"
  },
  "le-grand-barathon": {
    "name": "Le Grand Barathon",
    "slug": "le-grand-barathon",
    "street_address": "Aix-en-Provence, France",
    "city": "Aix-Marseille",
    "latitude": 43.5323032,
    "longitude": 5.4509692,
    "source_url": "https://shotgun.live/fr/venues/le-grand-barathon"
  },
  "le-makeda": {
    "name": "Le Makeda",
    "slug": "le-makeda",
    "street_address": "103 Rue Ferrari, 13005 Marseille, France",
    "postal_code": "13005",
    "city": "Marseille",
    "latitude": 43.2932951,
    "longitude": 5.3918093,
    "source_url": "https://shotgun.live/fr/venues/le-makeda"
  },
  "le-marlin": {
    "name": "LE MARLIN",
    "slug": "le-marlin",
    "street_address": "7 Place aux Huiles, 13001 Marseille, France",
    "postal_code": "13001",
    "city": "Marseille",
    "latitude": 43.2931896,
    "longitude": 5.3718605,
    "source_url": "https://shotgun.live/fr/venues/le-marlin"
  },
  "le-nucleaire-marseille": {
    "name": "Le Nucléaire Marseille",
    "slug": "le-nucleaire-marseille",
    "street_address": "15 Rue André Poggioli, 13006 Marseille, France",
    "postal_code": "13006",
    "city": "Marseille",
    "latitude": 43.2936524,
    "longitude": 5.3853954,
    "source_url": "https://shotgun.live/fr/venues/le-nucleaire-marseille"
  },
  "les-nuits-de-mamour": {
    "name": "LES NUITS DE MAMOUR",
    "slug": "les-nuits-de-mamour",
    "street_address": "44 Rue Saint-Saëns, 13001 Marseille, France",
    "postal_code": "13001",
    "city": "Marseille",
    "latitude": 43.2931859,
    "longitude": 5.3720769,
    "source_url": "https://shotgun.live/fr/venues/les-nuits-de-mamour"
  },
  "lestaminet-matinal": {
    "name": "L’estaminet matinal",
    "slug": "lestaminet-matinal",
    "street_address": "12, 14 Place Notre Dame du Mont, 13006 Marseille, France",
    "postal_code": "13006",
    "city": "Marseille",
    "latitude": 43.2919451,
    "longitude": 5.3837512,
    "source_url": "https://shotgun.live/fr/venues/l-estaminet-matinal"
  },
  "level-up-project": {
    "name": "Level Up Project",
    "slug": "level-up-project",
    "street_address": "3 Place Paul Cézanne, 13006 Marseille, France",
    "postal_code": "13006",
    "city": "Marseille",
    "latitude": 43.2926993,
    "longitude": 5.3831761,
    "source_url": "https://shotgun.live/fr/venues/level-up-project"
  },
  "manray-club": {
    "name": "Manray club",
    "slug": "manray-club",
    "street_address": "38 Rue Saint-Saëns, 13001 Marseille, France",
    "postal_code": "13001",
    "city": "Marseille",
    "latitude": 43.2932522,
    "longitude": 5.3725898,
    "source_url": "https://shotgun.live/fr/venues/manrayclub"
  },
  "naho-club": {
    "name": "NAHO CLUB",
    "slug": "naho-club",
    "street_address": "116 Avenue de Digne, 83130 La Garde, France",
    "postal_code": "83130",
    "city": "La Garde",
    "latitude": 43.1480535,
    "longitude": 6.0353305,
    "source_url": "https://shotgun.live/fr/venues/naho-club"
  },
  "prostpagande": {
    "name": "Prostpagande",
    "slug": "prostpagande",
    "street_address": "41 Rue Jobin, 13003 Marseille, France",
    "postal_code": "13003",
    "city": "Marseille",
    "latitude": 43.31048,
    "longitude": 5.3901924,
    "source_url": "https://shotgun.live/fr/venues/prostpagande"
  },
  "shafro": {
    "name": "SHAFRO",
    "slug": "shafro",
    "street_address": "40 Boulevard Jacques Saadé, 13002 Marseille, France",
    "postal_code": "13002",
    "city": "Marseille",
    "latitude": 43.3003721,
    "longitude": 5.364239,
    "source_url": "https://shotgun.live/fr/venues/shafro"
  },
  "static": {
    "name": "STATIC",
    "slug": "static",
    "street_address": "21 Cours Honoré d'Estienne d'Orves, 13001 Marseille, France",
    "postal_code": "13001",
    "city": "Marseille",
    "latitude": 43.2925042,
    "longitude": 5.3737622,
    "source_url": "https://shotgun.live/fr/venues/static"
  },
  "sunny-comedy-club": {
    "name": "SUNNY COMEDY CLUB",
    "slug": "sunny-comedy-club",
    "street_address": "5 Rue Jean-Marc Cathala, 13002 Marseille, France",
    "postal_code": "13002",
    "city": "Marseille",
    "latitude": 43.301299,
    "longitude": 5.3711523,
    "source_url": "https://shotgun.live/fr/venues/sunny-comedy-club"
  },
  "sunrave": {
    "name": "SUNRAVE",
    "slug": "sunrave",
    "street_address": "40 Boulevard Jacques Saadé, 13002 Marseille, France",
    "postal_code": "13002",
    "city": "Marseille",
    "latitude": 43.3003721,
    "longitude": 5.364239,
    "source_url": "https://shotgun.live/fr/venues/sunrave"
  },
  "talent": {
    "name": "TALENT.",
    "slug": "talent",
    "street_address": "21 Cours Honoré d'Estienne d'Orves, 13001 Marseille, France",
    "postal_code": "13001",
    "city": "Marseille",
    "latitude": 43.2925042,
    "longitude": 5.3737622,
    "source_url": "https://shotgun.live/fr/venues/talent"
  },
  "transverse-club": {
    "name": "Transverse Club",
    "slug": "transverse-club",
    "street_address": "24 Quai de Rive Neuve, 13007 Marseille, France",
    "postal_code": "13007",
    "city": "Marseille",
    "latitude": 43.2928749,
    "longitude": 5.3696364,
    "source_url": "https://shotgun.live/fr/venues/transverse-club"
  },
  "unite-22": {
    "name": "Unité.22",
    "slug": "unite-22",
    "street_address": "22 Rue Jobin, 13003 Marseille, France",
    "postal_code": "13003",
    "city": "Marseille",
    "latitude": 43.3105232,
    "longitude": 5.389208,
    "source_url": "https://shotgun.live/fr/venues/unite-22"
  },
  "vertigo-marseille": {
    "name": "Vertigo Marseille",
    "slug": "vertigo-marseille",
    "street_address": "75 Rue Sainte, 13007 Marseille, France",
    "postal_code": "13007",
    "city": "Marseille",
    "latitude": 43.2915848,
    "longitude": 5.3716131,
    "source_url": "https://shotgun.live/fr/venues/vertigo-marseille"
  },
  "vice-versa-marseille": {
    "name": "vice.versa.marseille",
    "slug": "vice-versa-marseille",
    "street_address": "40 Rue des Trois Rois, 13006 Marseille, France",
    "postal_code": "13006",
    "city": "Marseille",
    "latitude": 43.293427,
    "longitude": 5.3850598,
    "source_url": "https://shotgun.live/fr/venues/vice-versa-marseille"
  }
}