{
  "after-run-marseille": {
    "name": "AFTER RUN MARSEILLE",
    "slug": "after-run-marseille",
    "street_address": "Plage des Catalans, France",
    "city": "Aix-Marseille",
    "latitude": 43.2906568,
    "longitude": 5.3554392,
    "source_url": "https://shotgun.live/fr/venues/after-runmarseille"
  },
  "baby-club": {
    "name": "Baby club",
    "slug": "baby-club",
    "street_address": "2 Rue André Poggioli, 13006 Marseille, France",
    "postal_code": "13006",
    "city": "Marseille",
    "latitude": 43.2940988,
    "longitude": 5.3854241,
    "source_url": "https://shotgun.live/fr/venues/baby-club"
  },
  "barta-club": {
    "name": "Barta Club",
    "slug": "barta-club",
    "street_address": "83 Avenue de la Pointe Rouge, 13008 Marseille, France",
    "postal_code": "13008",
    "city": "Marseille",
    "latitude": 43.2453385,
    "longitude": 5.3740646,
    "source_url": "https://shotgun.live/fr/venues/barta-club"
  },
  "bi-pole": {
    "name": "Bi:pole",
    "slug": "bi-pole",
    "street_address": "41 Rue Jobin, 13003 Marseille, France",
    "postal_code": "13003",
    "city": "Marseille",
    "latitude": 43.31048,
    "longitude": 5.3901924,
    "source_url": "https://shotgun.live/fr/venues/bi-pole"
  },
  "boum-marseille": {
    "name": "BOUM Marseille",
    "slug": "boum-marseille",
    "street_address": "21 Rue André Poggioli, 13006 Marseille, France",
    "postal_code": "13006",
    "city": "Marseille",
    "latitude": 43.2934532,
    "longitude": 5.3852521,
    "source_url": "https://shotgun.live/fr/venues/boum-marseille"
  },
  "bounce-club-marseille": {
    "name": "Bounce Club Marseille",
    "slug": "bounce-club-marseille",
    "street_address": "35 Cours Honoré d'Estienne d'Orves, 13001 Marseille, France",
    "postal_code": "13001",
    "city": "Marseille",
    "latitude": 43.292288,
    "longitude": 5.3723362,
    "source_url": "https://shotgun.live/fr/venues/bounce-club-marseille"
  },
  "cabaret-aleatoire": {
    "name": "Cabaret Aléatoire",
    "slug": "cabaret-aleatoire",
    "street_address": "41 Rue Jobin, 13003 Marseille, France",
    "postal_code": "13003",
    "city": "Marseille",
    "latitude": 43.309633,
    "longitude": 5.3903188,
    "source_url": "https://shotgun.live/fr/venues/cabaretaleatoire"
  },
  "danceteria": {
    "name": "danceteria",
    "slug": "danceteria",
    "street_address": "18 Rue Saint-Saëns, 13001 Marseille, France",
    "postal_code": "13001",
    "city": "Marseille",
    "latitude": 43.2938344,
    "longitude": 5.3751483,
    "source_url": "https://shotgun.live/fr/venues/danceteria"
  },
  "itslaruche": {
    "name": "ItsLaRuche",
    "slug": "itslaruche",
    "street_address": "2 Rue Beaussier, 83000 Toulon, France",
    "postal_code": "83000",
    "city": "Toulon",
    "latitude": 43.1097041,
    "longitude": 5.940123,
    "source_url": "https://shotgun.live/fr/venues/its-la-ruche"
  },
  "kumquat": {
    "name": "KUMQUAT",
    "slug": "kumquat",
    "street_address": "36 Rue d'Aubagne, 13001 Marseille, France",
    "postal_code": "13001",
    "city": "Marseille",
    "latitude": 43.2947981,
    "longitude": 5.3800765,
    "source_url": "https://shotgun.live/fr/venues/kumquat"
  },
  "l-affranchi": {
    "name": "L'Affranchi",
    "slug": "l-affranchi",
    "street_address": "212 Boulevard de Saint-Marcel, 13011 Marseille, France",
    "postal_code": "13011",
    "city": "Marseille",
    "latitude": 43.2865,
    "longitude": 5.4675,
    "source_url": "https://shotgun.live/fr/venues/l-affranchi"
  },
  "la-mescla-festival": {
    "name": "La Mescla Festival",
    "slug": "la-mescla-festival",
    "street_address": "975 Chemin des Plantades, 83130 La Garde, France",
    "postal_code": "83130",
    "city": "La Garde",
    "latitude": 43.1419679,
    "longitude": 6.0206158,
    "source_url": "https://shotgun.live/fr/venues/la-mescla-festival"
  },
  "la-traverse-de-balkis": {
    "name": "La Traverse De Balkis",
    "slug": "la-traverse-de-balkis",
    "street_address": "1 Rue des Trois Rois, 13006 Marseille, France",
    "postal_code": "13006",
    "city": "Marseille",
    "latitude": 43.2944966,
    "longitude": 5.3846011,
    "source_url": "https://shotgun.live/fr/venues/la-traverse-de-balkis"
  },
  "le-bazar": {
    "name": "LE BAZAR",
    "slug": "le-bazar",
    "street_address": "90 Boulevard Rabatau, 13008 Marseille, France",
    "postal_code": "13008",
    "city": "Marseille",
    "latitude": 43.2763808,
    "longitude": 5.397904,
    "source_url": "https://shotgun.live/fr/venues/la-palmeraie"
  },
  "le-bouge-marseille": {
    "name": "Le Bouge Marseille",
    "slug": "le-bouge-marseille",
    "street_address": "21 Cours Honoré d'Estienne d'Orves, 13001 Marseille, France",
    "postal_code": "13001",
    "city": "Marseille",
    "latitude": 43.2926142,
    "longitude": 5.37373,
    "source_url": "https://shotgun.live/fr/venues/le-bouge-marseille"
  },
  "le-chapiteau-marseille": {
    "name": "Le Chapiteau - marseille",
    "slug": "le-chapiteau-marseille",
    "street_address": "38 Traverse Notre Dame du Bon Secours, 13003 Marseille, France",
    "postal_code": "13003",
    "city": "Marseille",
    "latitude": 43.3148239,
    "longitude": 5.3862458,
    "source_url": "https://shotgun.live/fr/venues/le-chapiteau-marseille"
  },
  "le-makeda": {
    "name": "Le Makeda",
    "slug": "le-makeda",
    "street_address": "103 Rue Ferrari, 13005 Marseille, France",
    "postal_code": "13005",
    "city": "Marseille",
    "latitude": 43.2932951,
    "longitude": 5.3918093,
    "source_url": "https://shotgun.live/fr/venues/le-makeda"
  },
  "le-marlin": {
    "name": "LE MARLIN",
    "slug": "le-marlin",
    "street_address": "7 Place aux Huiles, 13001 Marseille, France",
    "postal_code": "13001",
    "city": "Marseille",
    "latitude": 43.2931896,
    "longitude": 5.3718605,
    "source_url": "https://shotgun.live/fr/venues/le-marlin"
  },
  "le-nucleaire-marseille": {
    "name": "Le Nucléaire Marseille",
    "slug": "le-nucleaire-marseille",
    "street_address": "15 Rue André Poggioli, 13006 Marseille, France",
    "postal_code": "13006",
    "city": "Marseille",
    "latitude": 43.2936524,
    "longitude": 5.3853954,
    "source_url": "https://shotgun.live/fr/venues/le-nucleaire-marseille"
  },
  "lestaminet-matinal": {
    "name": "L’estaminet matinal",
    "slug": "lestaminet-matinal",
    "street_address": "14 Place Notre Dame du Mont, 13006 Marseille, France",
    "postal_code": "13006",
    "city": "Marseille",
    "latitude": 43.2919023,
    "longitude": 5.383813,
    "source_url": "https://shotgun.live/fr/venues/l-estaminet-matinal"
  },
  "liquid-disco": {
    "name": "Liquid Disco",
    "slug": "liquid-disco",
    "street_address": "14a Rue d'Aubagne, 13001 Marseille, Francia",
    "postal_code": "13001",
    "city": "Marseille",
    "latitude": 43.2954738,
    "longitude": 5.3791552,
    "source_url": "https://shotgun.live/fr/venues/liquid-disco"
  },
  "manray-club": {
    "name": "Manray club",
    "slug": "manray-club",
    "street_address": "38 Rue Saint-Saëns, 13001 Marseille, France",
    "postal_code": "13001",
    "city": "Marseille",
    "latitude": 43.2932522,
    "longitude": 5.3725898,
    "source_url": "https://shotgun.live/fr/venues/manrayclub"
  },
  "pop-club-marseille": {
    "name": "Pop Club Marseille",
    "slug": "pop-club-marseille",
    "street_address": "141 Route Léon Lachamp, 13009 Marseille, France",
    "postal_code": "13009",
    "city": "Marseille",
    "latitude": 43.2489538,
    "longitude": 5.4406028,
    "source_url": "https://shotgun.live/fr/venues/pop-club-marseille"
  },
  "purple-bar-a-cocktails-dansant": {
    "name": "Purple - Bar à cocktails dansant",
    "slug": "purple-bar-a-cocktails-dansant",
    "street_address": "54 Avenue de Montredon, 13008 Marseille, France",
    "postal_code": "13008",
    "city": "Marseille",
    "latitude": 43.2442546,
    "longitude": 5.3705255,
    "source_url": "https://shotgun.live/fr/venues/purple-bar-a-cocktails-dansant"
  },
  "rooftop-massilia-beach": {
    "name": "Rooftop Massilia Beach",
    "slug": "rooftop-massilia-beach",
    "street_address": "41 Boulevard Michelet, 13008 Marseille, France",
    "postal_code": "13008",
    "city": "Marseille",
    "latitude": 43.269827,
    "longitude": 5.3958873,
    "source_url": "https://shotgun.live/fr/venues/rooftop-massilia-beach"
  },
  "the-pablo-club": {
    "name": "THE PABLO CLUB",
    "slug": "the-pablo-club",
    "street_address": "23 Rue Saint-Saëns, 13001 Marseille, France",
    "postal_code": "13001",
    "city": "Marseille",
    "latitude": 43.293381,
    "longitude": 5.3738487,
    "source_url": "https://shotgun.live/fr/venues/thepabloclub"
  },
  "theodasson": {
    "name": "theodasson",
    "slug": "theodasson",
    "street_address": "40 Boulevard Jacques Saadé, 13002 Marseille, France",
    "postal_code": "13002",
    "city": "Marseille",
    "latitude": 43.3003721,
    "longitude": 5.364239,
    "source_url": "https://shotgun.live/fr/venues/theodasson"
  },
  "thermostat-9": {
    "name": "Thermostat 9",
    "slug": "thermostat-9",
    "street_address": "12, 14 Place Notre Dame du Mont, 13006 Marseille, France",
    "postal_code": "13006",
    "city": "Marseille",
    "latitude": 43.2919451,
    "longitude": 5.3837512,
    "source_url": "https://shotgun.live/fr/venues/thermostat-9"
  },
  "tribematik": {
    "name": "Tribematik",
    "slug": "tribematik",
    "street_address": "138 Avenue de la Capelette, 13010 Marseille, France",
    "postal_code": "13010",
    "city": "Marseille",
    "latitude": 43.2807408,
    "longitude": 5.4069,
    "source_url": "https://shotgun.live/fr/venues/tribematik"
  },
  "unite-22": {
    "name": "Unité.22",
    "slug": "unite-22",
    "street_address": "22 Rue Jobin, 13003 Marseille, France",
    "postal_code": "13003",
    "city": "Marseille",
    "latitude": 43.3105232,
    "longitude": 5.389208,
    "source_url": "https://shotgun.live/fr/venues/unite-22"
  },
  "vendettek": {
    "name": "VENDETTEK",
    "slug": "vendettek",
    "street_address": "12, 14 Place Notre Dame du Mont, 13006 Marseille, France",
    "postal_code": "13006",
    "city": "Marseille",
    "latitude": 43.2919451,
    "longitude": 5.3837512,
    "source_url": "https://shotgun.live/fr/venues/vendettek"
  },
  "vertigo-marseille": {
    "name": "Vertigo Marseille",
    "slug": "vertigo-marseille",
    "street_address": "75 Rue Sainte, 13007 Marseille, France",
    "postal_code": "13007",
    "city": "Marseille",
    "latitude": 43.2915848,
    "longitude": 5.3716131,
    "source_url": "https://shotgun.live/fr/venues/vertigo-marseille"
  },
  "vice-versa-marseille": {
    "name": "vice.versa.marseille",
    "slug": "vice-versa-marseille",
    "street_address": "40 Rue des Trois Rois, 13006 Marseille, France",
    "postal_code": "13006",
    "city": "Marseille",
    "latitude": 43.293427,
    "longitude": 5.3850598,
    "source_url": "https://shotgun.live/fr/venues/vice-versa-marseille"
  },
  "vybz": {
    "name": "VYBZ",
    "slug": "vybz",
    "street_address": "Avenue Vaudoyer, 13002 Marseille, France",
    "postal_code": "13002",
    "city": "Marseille",
    "latitude": 43.2977099,
    "longitude": 5.3634802,
    "source_url": "https://shotgun.live/fr/venues/vybz"
  },
  "white-rabbit": {
    "name": "White Rabbit",
    "slug": "white-rabbit",
    "street_address": "23 Quai de la Joliette, 13002 Marseille, France",
    "postal_code": "13002",
    "city": "Marseille",
    "latitude": 43.3014328,
    "longitude": 5.3646199,
    "source_url": "https://shotgun.live/fr/venues/white-rabbit"
  }
}