{
  "baby-club": {
    "name": "Baby club",
    "slug": "baby-club",
    "street_address": "2 Rue André Poggioli, 13006 Marseille, France",
    "postal_code": "13006",
    "city": "Marseille",
    "latitude": 43.2940988,
    "longitude": 5.3854241,
    "source_url": "https://shotgun.live/fr/venues/baby-club"
  },
  "barta-club": {
    "name": "Barta Club",
    "slug": "barta-club",
    "street_address": "83 Avenue de la Pointe Rouge, 13008 Marseille, France",
    "postal_code": "13008",
    "city": "Marseille",
    "latitude": 43.2453385,
    "longitude": 5.3740646,
    "source_url": "https://shotgun.live/fr/venues/barta-club"
  },
  "bi-pole": {
    "name": "Bi:pole",
    "slug": "bi-pole",
    "street_address": "41 Rue Jobin, 13003 Marseille, France",
    "postal_code": "13003",
    "city": "Marseille",
    "latitude": 43.31048,
    "longitude": 5.3901924,
    "source_url": "https://shotgun.live/fr/venues/bi-pole"
  },
  "blum-marseille": {
    "name": "BLUM Marseille",
    "slug": "blum-marseille",
    "street_address": "125 La Canebière, 13001 Marseille, France",
    "postal_code": "13001",
    "city": "Marseille",
    "latitude": 43.2986948,
    "longitude": 5.3830016,
    "source_url": "https://shotgun.live/fr/venues/blum-marseille"
  },
  "boum-marseille": {
    "name": "BOUM Marseille",
    "slug": "boum-marseille",
    "street_address": "21 Rue André Poggioli, 13006 Marseille, France",
    "postal_code": "13006",
    "city": "Marseille",
    "latitude": 43.2934532,
    "longitude": 5.3852521,
    "source_url": "https://shotgun.live/fr/venues/boum-marseille"
  },
  "bounce-club-marseille": {
    "name": "Bounce Club Marseille",
    "slug": "bounce-club-marseille",
    "street_address": "35 Cours Honoré d'Estienne d'Orves, 13001 Marseille, France",
    "postal_code": "13001",
    "city": "Marseille",
    "latitude": 43.292288,
    "longitude": 5.3723362,
    "source_url": "https://shotgun.live/fr/venues/bounce-club-marseille"
  },
  "bpm-mars": {
    "name": "BPM MARS",
    "slug": "bpm-mars",
    "street_address": "44 Boulevard Capitaine Gèze, 13014 Marseille, France",
    "postal_code": "13014",
    "city": "Marseille",
    "latitude": 43.3296739,
    "longitude": 5.3723139,
    "source_url": "https://shotgun.live/fr/venues/bpm-mars"
  },
  "danceteria": {
    "name": "danceteria",
    "slug": "danceteria",
    "street_address": "18 Rue Saint-Saëns, 13001 Marseille, France",
    "postal_code": "13001",
    "city": "Marseille",
    "latitude": 43.2938344,
    "longitude": 5.3751483,
    "source_url": "https://shotgun.live/fr/venues/danceteria"
  },
  "esquina-tropical": {
    "name": "Esquina tropical",
    "slug": "esquina-tropical",
    "street_address": "30 Rue de la Paix Marcel Paul, 13001 Marseille, France",
    "postal_code": "13001",
    "city": "Marseille",
    "latitude": 43.292222,
    "longitude": 5.372692,
    "source_url": "https://shotgun.live/fr/venues/esquina-tropical"
  },
  "fai-virar": {
    "name": "FAI VIRAR",
    "slug": "fai-virar",
    "street_address": "Boulevard Jacques Saadé, 13002 Marseille, France",
    "postal_code": "13002",
    "city": "Marseille",
    "latitude": 43.2988737,
    "longitude": 5.3634683,
    "source_url": "https://shotgun.live/fr/venues/fai-virar"
  },
  "la-bringue-girls-only": {
    "name": "La Bringue Girls Only",
    "slug": "la-bringue-girls-only",
    "street_address": "40 Boulevard Jacques Saadé, 13002 Marseille, France",
    "postal_code": "13002",
    "city": "Marseille",
    "latitude": 43.3003721,
    "longitude": 5.364239,
    "source_url": "https://shotgun.live/fr/venues/la-bringue-girls-only"
  },
  "la-cale-vieux-port": {
    "name": "La Cale vieux port",
    "slug": "la-cale-vieux-port",
    "street_address": "7 Rue Glandeves, 13001 Marseille, France",
    "postal_code": "13001",
    "city": "Marseille",
    "latitude": 43.2939856,
    "longitude": 5.3749591,
    "source_url": "https://shotgun.live/fr/venues/la-cale-vieux-port"
  },
  "la-degaine-marseille": {
    "name": "La Dégaine Marseille",
    "slug": "la-degaine-marseille",
    "street_address": "64 Rue de la Loubière, 13006 Marseille, France",
    "postal_code": "13006",
    "city": "Marseille",
    "latitude": 43.2905044,
    "longitude": 5.3888934,
    "source_url": "https://shotgun.live/fr/venues/la-degaine-marseille"
  },
  "la-gadji-girls-only": {
    "name": "LA GADJI - Girls Only",
    "slug": "la-gadji-girls-only",
    "street_address": "42 Rue Negresko, 13008 Marseille, France",
    "postal_code": "13008",
    "city": "Marseille",
    "latitude": 43.2694096,
    "longitude": 5.3892118,
    "source_url": "https://shotgun.live/fr/venues/la-gadji"
  },
  "la-traverse-de-balkis": {
    "name": "La Traverse De Balkis",
    "slug": "la-traverse-de-balkis",
    "street_address": "1 Rue des Trois Rois, 13006 Marseille, France",
    "postal_code": "13006",
    "city": "Marseille",
    "latitude": 43.2944966,
    "longitude": 5.3846011,
    "source_url": "https://shotgun.live/fr/venues/la-traverse-de-balkis"
  },
  "le-bazar": {
    "name": "LE BAZAR",
    "slug": "le-bazar",
    "street_address": "90 Boulevard Rabatau, 13008 Marseille, France",
    "postal_code": "13008",
    "city": "Marseille",
    "latitude": 43.2763808,
    "longitude": 5.397904,
    "source_url": "https://shotgun.live/fr/venues/la-palmeraie"
  },
  "le-bouge-marseille": {
    "name": "Le Bouge Marseille",
    "slug": "le-bouge-marseille",
    "street_address": "21 Cours Honoré d'Estienne d'Orves, 13001 Marseille, France",
    "postal_code": "13001",
    "city": "Marseille",
    "latitude": 43.2926142,
    "longitude": 5.37373,
    "source_url": "https://shotgun.live/fr/venues/le-bouge-marseille"
  },
  "le-chapiteau-marseille": {
    "name": "Le Chapiteau - marseille",
    "slug": "le-chapiteau-marseille",
    "street_address": "38 Traverse Notre Dame du Bon Secours, 13003 Marseille, France",
    "postal_code": "13003",
    "city": "Marseille",
    "latitude": 43.3148239,
    "longitude": 5.3862458,
    "source_url": "https://shotgun.live/fr/venues/le-chapiteau-marseille"
  },
  "le-makeda": {
    "name": "Le Makeda",
    "slug": "le-makeda",
    "street_address": "103 Rue Ferrari, 13005 Marseille, France",
    "postal_code": "13005",
    "city": "Marseille",
    "latitude": 43.2932951,
    "longitude": 5.3918093,
    "source_url": "https://shotgun.live/fr/venues/le-makeda"
  },
  "le-marlin": {
    "name": "LE MARLIN",
    "slug": "le-marlin",
    "street_address": "7 Place aux Huiles, 13001 Marseille, France",
    "postal_code": "13001",
    "city": "Marseille",
    "latitude": 43.2931896,
    "longitude": 5.3718605,
    "source_url": "https://shotgun.live/fr/venues/le-marlin"
  },
  "le-nucleaire-marseille": {
    "name": "Le Nucléaire Marseille",
    "slug": "le-nucleaire-marseille",
    "street_address": "15 Rue André Poggioli, 13006 Marseille, France",
    "postal_code": "13006",
    "city": "Marseille",
    "latitude": 43.2936464,
    "longitude": 5.3853972,
    "source_url": "https://shotgun.live/fr/venues/le-nucleaire-marseille"
  },
  "lestaminet-matinal": {
    "name": "L’estaminet matinal",
    "slug": "lestaminet-matinal",
    "street_address": "14 Place Notre Dame du Mont, 13006 Marseille, France",
    "postal_code": "13006",
    "city": "Marseille",
    "latitude": 43.2919023,
    "longitude": 5.383813,
    "source_url": "https://shotgun.live/fr/venues/l-estaminet-matinal"
  },
  "manray-club": {
    "name": "Manray club",
    "slug": "manray-club",
    "street_address": "38 Rue Saint-Saëns, 13001 Marseille, France",
    "postal_code": "13001",
    "city": "Marseille",
    "latitude": 43.2932522,
    "longitude": 5.3725898,
    "source_url": "https://shotgun.live/fr/venues/manrayclub"
  },
  "naho-club": {
    "name": "NAHO CLUB",
    "slug": "naho-club",
    "street_address": "116 Avenue de Digne, 83130 La Garde, France",
    "postal_code": "83130",
    "city": "La Garde",
    "latitude": 43.1480535,
    "longitude": 6.0353305,
    "source_url": "https://shotgun.live/fr/venues/naho-club"
  },
  "nhow-marseille": {
    "name": "Nhow Marseille",
    "slug": "nhow-marseille",
    "street_address": "200 Corniche Président John Fitzgerald Kennedy, 13007 Marseille, France",
    "postal_code": "13007",
    "city": "Marseille",
    "latitude": 43.2686152,
    "longitude": 5.3690832,
    "source_url": "https://shotgun.live/fr/venues/nhow-marseille"
  },
  "paloma-bar-a-cocktails": {
    "name": "Paloma - bar à cocktails",
    "slug": "paloma-bar-a-cocktails",
    "street_address": "17 Rue André Poggioli, 13006 Marseille, France",
    "postal_code": "13006",
    "city": "Marseille",
    "latitude": 43.2935918,
    "longitude": 5.3853563,
    "source_url": "https://shotgun.live/fr/venues/paloma-bar-a-cocktails"
  },
  "ph4-records": {
    "name": "Ph4_records",
    "slug": "ph4-records",
    "street_address": "38 Rue Saint-Saëns, 13001 Marseille, France",
    "postal_code": "13001",
    "city": "Marseille",
    "latitude": 43.2932639,
    "longitude": 5.3725497,
    "source_url": "https://shotgun.live/fr/venues/ph-4-records"
  },
  "pop-club-marseille": {
    "name": "Pop Club Marseille",
    "slug": "pop-club-marseille",
    "street_address": "141 Route Léon Lachamp, 13009 Marseille, France",
    "postal_code": "13009",
    "city": "Marseille",
    "latitude": 43.2489538,
    "longitude": 5.4406028,
    "source_url": "https://shotgun.live/fr/venues/pop-club-marseille"
  },
  "rooftop-massilia-beach": {
    "name": "Rooftop Massilia Beach",
    "slug": "rooftop-massilia-beach",
    "street_address": "41 Boulevard Michelet, 13008 Marseille, France",
    "postal_code": "13008",
    "city": "Marseille",
    "latitude": 43.269827,
    "longitude": 5.3958873,
    "source_url": "https://shotgun.live/fr/venues/rooftop-massilia-beach"
  },
  "shakespeare-club": {
    "name": "Shakespeare club",
    "slug": "shakespeare-club",
    "street_address": "Place Ramus, 13100 Aix-en-Provence, France",
    "postal_code": "13100",
    "city": "Aix-En-Provence",
    "latitude": 43.5282006,
    "longitude": 5.4470085,
    "source_url": "https://shotgun.live/fr/venues/shakespeare-club"
  },
  "the-pablo-club": {
    "name": "THE PABLO CLUB",
    "slug": "the-pablo-club",
    "street_address": "23 Rue Saint-Saëns, 13001 Marseille, France",
    "postal_code": "13001",
    "city": "Marseille",
    "latitude": 43.293381,
    "longitude": 5.3738487,
    "source_url": "https://shotgun.live/fr/venues/thepabloclub"
  },
  "tormento": {
    "name": "Tormento",
    "slug": "tormento",
    "street_address": "41 Rue Jobin, 13003 Marseille, France",
    "postal_code": "13003",
    "city": "Marseille",
    "latitude": 43.309633,
    "longitude": 5.3903188,
    "source_url": "https://shotgun.live/fr/venues/tormento"
  },
  "transverse-club": {
    "name": "Transverse Club",
    "slug": "transverse-club",
    "street_address": "24 Quai de Rive Neuve, 13001 Marseille, France",
    "postal_code": "13001",
    "city": "Marseille",
    "latitude": 43.292825,
    "longitude": 5.3696665,
    "source_url": "https://shotgun.live/fr/venues/transverse-club"
  },
  "unite-22": {
    "name": "Unité.22",
    "slug": "unite-22",
    "street_address": "22 Rue Jobin, 13003 Marseille, France",
    "postal_code": "13003",
    "city": "Marseille",
    "latitude": 43.3105232,
    "longitude": 5.389208,
    "source_url": "https://shotgun.live/fr/venues/unite-22"
  },
  "vice-versa-marseille": {
    "name": "vice.versa.marseille",
    "slug": "vice-versa-marseille",
    "street_address": "40 Rue des Trois Rois, 13006 Marseille, France",
    "postal_code": "13006",
    "city": "Marseille",
    "latitude": 43.293427,
    "longitude": 5.3850598,
    "source_url": "https://shotgun.live/fr/venues/vice-versa-marseille"
  },
  "white-rabbit": {
    "name": "White Rabbit",
    "slug": "white-rabbit",
    "street_address": "23 Quai de la Joliette, 13002 Marseille, France",
    "postal_code": "13002",
    "city": "Marseille",
    "latitude": 43.3014328,
    "longitude": 5.3646199,
    "source_url": "https://shotgun.live/fr/venues/white-rabbit"
  },
  "zinzin-family": {
    "name": "ZINZIN FAMILY",
    "slug": "zinzin-family",
    "postal_code": "13010",
    "city": "Marseille",
    "latitude": 43.2807261,
    "longitude": 5.4069018,
    "source_url": "https://shotgun.live/fr/venues/zinzin-family"
  }
}