{
  "baby-club": {
    "name": "Baby club",
    "slug": "baby-club",
    "street_address": "40 Rue des Trois Rois, 13006 Marseille, France",
    "postal_code": "13006",
    "city": "Marseille",
    "latitude": 43.293427,
    "longitude": 5.3850598,
    "source_url": "https://shotgun.live/fr/venues/baby-club"
  },
  "bigsouth": {
    "name": "BIGSOUTH",
    "slug": "bigsouth",
    "street_address": "40 Boulevard Jacques Saadé, 13002 Marseille, France",
    "postal_code": "13002",
    "city": "Marseille",
    "latitude": 43.3003721,
    "longitude": 5.364239,
    "source_url": "https://shotgun.live/fr/venues/bigsouth"
  },
  "boum-marseille": {
    "name": "BOUM Marseille",
    "slug": "boum-marseille",
    "street_address": "21 Rue André Poggioli, 13006 Marseille, France",
    "postal_code": "13006",
    "city": "Marseille",
    "latitude": 43.2934532,
    "longitude": 5.3852521,
    "source_url": "https://shotgun.live/fr/venues/boum-marseille"
  },
  "breakfast-club": {
    "name": "Breakfast Club",
    "slug": "breakfast-club",
    "street_address": "Bd Euromediterranée Quai d, 13002 Marseille, France",
    "postal_code": "13002",
    "city": "Marseille",
    "latitude": 43.3258684,
    "longitude": 5.356424,
    "source_url": "https://shotgun.live/fr/venues/breakfast-club"
  },
  "cabaret-aleatoire": {
    "name": "Cabaret Aléatoire",
    "slug": "cabaret-aleatoire",
    "street_address": "41 Rue Jobin, 13003 Marseille, France",
    "postal_code": "13003",
    "city": "Marseille",
    "latitude": 43.309633,
    "longitude": 5.3903188,
    "source_url": "https://shotgun.live/fr/venues/cabaretaleatoire"
  },
  "clara-mydia": {
    "name": "Clara Mydia",
    "slug": "clara-mydia",
    "street_address": "176 Boulevard Chave, 13005 Marseille, France",
    "postal_code": "13005",
    "city": "Marseille",
    "latitude": 43.2953842,
    "longitude": 5.3964559,
    "source_url": "https://shotgun.live/fr/venues/clara-mydia"
  },
  "danceteria": {
    "name": "danceteria",
    "slug": "danceteria",
    "street_address": "18 Rue Saint-Saëns, 13001 Marseille, France",
    "postal_code": "13001",
    "city": "Marseille",
    "latitude": 43.2938344,
    "longitude": 5.3751483,
    "source_url": "https://shotgun.live/fr/venues/danceteria"
  },
  "devilish": {
    "name": "DEVILISH",
    "slug": "devilish",
    "street_address": "44 Cours Julien, 13006 Marseille, France",
    "postal_code": "13006",
    "city": "Marseille",
    "latitude": 43.2947156,
    "longitude": 5.3827035,
    "source_url": "https://shotgun.live/fr/venues/devilish"
  },
  "k-vibes": {
    "name": "K-Vibes",
    "slug": "k-vibes",
    "street_address": "975 Chemin des Plantades, 83130 La Garde, France",
    "postal_code": "83130",
    "city": "La Garde",
    "latitude": 43.1419473,
    "longitude": 6.0207087,
    "source_url": "https://shotgun.live/fr/venues/k-vibes"
  },
  "la-palmeraie-bazar": {
    "name": "LA PALMERAIE - BAZAR",
    "slug": "la-palmeraie-bazar",
    "street_address": "90 Boulevard Rabatau, 13008 Marseille, France",
    "postal_code": "13008",
    "city": "Marseille",
    "latitude": 43.2763827,
    "longitude": 5.3978847,
    "source_url": "https://shotgun.live/fr/venues/la-palmeraie"
  },
  "la-traverse-de-balkis": {
    "name": "La Traverse De Balkis",
    "slug": "la-traverse-de-balkis",
    "street_address": "1 Rue des Trois Rois, 13006 Marseille, France",
    "postal_code": "13006",
    "city": "Marseille",
    "latitude": 43.2944966,
    "longitude": 5.3846011,
    "source_url": "https://shotgun.live/fr/venues/la-traverse-de-balkis"
  },
  "le-chapiteau-marseille": {
    "name": "Le Chapiteau - marseille",
    "slug": "le-chapiteau-marseille",
    "street_address": "38 Traverse Notre Dame du Bon Secours, 13003 Marseille, France",
    "postal_code": "13003",
    "city": "Marseille",
    "latitude": 43.3148239,
    "longitude": 5.3862458,
    "source_url": "https://shotgun.live/fr/venues/le-chapiteau-marseille"
  },
  "le-marlin": {
    "name": "LE MARLIN",
    "slug": "le-marlin",
    "street_address": "7 Place aux Huiles, 13001 Marseille, France",
    "postal_code": "13001",
    "city": "Marseille",
    "latitude": 43.2931896,
    "longitude": 5.3718605,
    "source_url": "https://shotgun.live/fr/venues/le-marlin"
  },
  "le-nucleaire-marseille": {
    "name": "Le Nucléaire Marseille",
    "slug": "le-nucleaire-marseille",
    "street_address": "15 Rue André Poggioli, 13006 Marseille, France",
    "postal_code": "13006",
    "city": "Marseille",
    "latitude": 43.2936524,
    "longitude": 5.3853954,
    "source_url": "https://shotgun.live/fr/venues/le-nucleaire-marseille"
  },
  "le-spot-mourillon": {
    "name": "Le Spot Mourillon",
    "slug": "le-spot-mourillon",
    "street_address": "57 Rue Lamalgue, 83000 Toulon, France",
    "postal_code": "83000",
    "city": "Toulon",
    "latitude": 43.1099546,
    "longitude": 5.9400604,
    "source_url": "https://shotgun.live/fr/venues/le-spot-mourillon"
  },
  "limonerooftop": {
    "name": "LimoneRooftop",
    "slug": "limonerooftop",
    "street_address": "756 Avenue Emile Bodin, 13600 La Ciotat, France",
    "postal_code": "13600",
    "city": "La Ciotat",
    "latitude": 43.1916298,
    "longitude": 5.6028899,
    "source_url": "https://shotgun.live/fr/venues/limone-rooftop"
  },
  "nightcore-music": {
    "name": "Nightcore music",
    "slug": "nightcore-music",
    "street_address": "2 Boulevard Jacques Saadé, 13002 Marseille, France",
    "postal_code": "13002",
    "city": "Marseille",
    "latitude": 43.2990475,
    "longitude": 5.3638525,
    "source_url": "https://shotgun.live/fr/venues/nightcore-techno"
  },
  "nl-production": {
    "name": "NL PRODUCTION",
    "slug": "nl-production",
    "street_address": "40 Boulevard Jacques Saadé, 13002 Marseille, France",
    "postal_code": "13002",
    "city": "Marseille",
    "latitude": 43.3003721,
    "longitude": 5.364239,
    "source_url": "https://shotgun.live/fr/venues/nl-production"
  },
  "nomads-unit": {
    "name": "NOMADS.UNIT",
    "slug": "nomads-unit",
    "street_address": "Old Port of Marseille, France",
    "city": "Aix-Marseille",
    "latitude": 43.2950303,
    "longitude": 5.3646265,
    "source_url": "https://shotgun.live/fr/venues/nomads-unit"
  },
  "r2-le-rooftop": {
    "name": "R2 LE ROOFTOP",
    "slug": "r2-le-rooftop",
    "street_address": "9 Quai du Lazaret, 13002 Marseille, France",
    "postal_code": "13002",
    "city": "Marseille",
    "latitude": 43.3067576,
    "longitude": 5.364598,
    "source_url": "https://shotgun.live/fr/venues/r2-le-rooftop"
  },
  "rooftop-cassis": {
    "name": "Rooftop Cassis",
    "slug": "rooftop-cassis",
    "street_address": "Promenade Aristide Briand, 13260 Cassis, France",
    "postal_code": "13260",
    "city": "Cassis",
    "latitude": 43.2130995,
    "longitude": 5.535816,
    "source_url": "https://shotgun.live/fr/venues/babel-music"
  },
  "rooftop-massilia-beach": {
    "name": "Rooftop Massilia Beach",
    "slug": "rooftop-massilia-beach",
    "street_address": "41 Boulevard Michelet, 13008 Marseille, France",
    "postal_code": "13008",
    "city": "Marseille",
    "latitude": 43.269827,
    "longitude": 5.3958873,
    "source_url": "https://shotgun.live/fr/venues/rooftop-massilia-beach"
  },
  "soon-event": {
    "name": "SOON EVENT",
    "slug": "soon-event",
    "street_address": "17 Boulevard Jacques Saadé, 13002 Marseille, France",
    "postal_code": "13002",
    "city": "Marseille",
    "latitude": 43.2992238,
    "longitude": 5.3638568,
    "source_url": "https://shotgun.live/fr/venues/soon-event"
  },
  "sport-beach-marseille": {
    "name": "SPORT BEACH MARSEILLE",
    "slug": "sport-beach-marseille",
    "street_address": "138 Avenue Pierre Mendès France, 13008 Marseille, France",
    "postal_code": "13008",
    "city": "Marseille",
    "latitude": 43.2555503,
    "longitude": 5.3759943,
    "source_url": "https://shotgun.live/fr/venues/sport-beach-marseille"
  },
  "sunny-comedy-club": {
    "name": "SUNNY COMEDY CLUB",
    "slug": "sunny-comedy-club",
    "street_address": "5 Rue Jean-Marc Cathala, 13002 Marseille, France",
    "postal_code": "13002",
    "city": "Marseille",
    "latitude": 43.301299,
    "longitude": 5.3711523,
    "source_url": "https://shotgun.live/fr/venues/sunny-comedy-club"
  },
  "tormento": {
    "name": "Tormento",
    "slug": "tormento",
    "street_address": "141 Route Léon Lachamp, 13009 Marseille, France",
    "postal_code": "13009",
    "city": "Marseille",
    "latitude": 43.2489538,
    "longitude": 5.4406028,
    "source_url": "https://shotgun.live/fr/venues/tormento"
  },
  "twerkistan": {
    "name": "Twerkistan",
    "slug": "twerkistan",
    "street_address": "Montée du Souvenir Français, 13007 Marseille, France",
    "postal_code": "13007",
    "city": "Marseille",
    "latitude": 43.2920985,
    "longitude": 5.3627544,
    "source_url": "https://shotgun.live/fr/venues/twerkistan"
  },
  "undr-block": {
    "name": "UNDR BLOCK",
    "slug": "undr-block",
    "street_address": "1 Rue des Trois Rois, 13006 Marseille, France",
    "postal_code": "13006",
    "city": "Marseille",
    "latitude": 43.2944966,
    "longitude": 5.3846011,
    "source_url": "https://shotgun.live/fr/venues/undr-block"
  },
  "unite-22": {
    "name": "Unité.22",
    "slug": "unite-22",
    "street_address": "22 Rue Jobin, 13003 Marseille, France",
    "postal_code": "13003",
    "city": "Marseille",
    "latitude": 43.3105232,
    "longitude": 5.389208,
    "source_url": "https://shotgun.live/fr/venues/unite-22"
  },
  "vice-versa-marseille": {
    "name": "vice.versa.marseille",
    "slug": "vice-versa-marseille",
    "street_address": "40 Rue des Trois Rois, 13006 Marseille, France",
    "postal_code": "13006",
    "city": "Marseille",
    "latitude": 43.293427,
    "longitude": 5.3850598,
    "source_url": "https://shotgun.live/fr/venues/vice-versa-marseille"
  },
  "zonazu": {
    "name": "ZONAZU 🇧🇷",
    "slug": "zonazu",
    "street_address": "1 Rue des Trois Rois, 13006 Marseille, França",
    "postal_code": "13006",
    "city": "Marseille",
    "latitude": 43.2944966,
    "longitude": 5.3846011,
    "source_url": "https://shotgun.live/fr/venues/zonazu"
  }
}