{
  "absolem": {
    "name": "Absolem",
    "slug": "absolem",
    "street_address": "40 Boulevard Jacques Saadé, 13002 Marseille, France",
    "postal_code": "13002",
    "city": "Marseille",
    "latitude": 43.3003721,
    "longitude": 5.364239,
    "source_url": "https://shotgun.live/fr/venues/absolem"
  },
  "baby-club": {
    "name": "Baby club",
    "slug": "baby-club",
    "street_address": "2 Rue André Poggioli, 13006 Marseille, France",
    "postal_code": "13006",
    "city": "Marseille",
    "latitude": 43.2940988,
    "longitude": 5.3854241,
    "source_url": "https://shotgun.live/fr/venues/baby-club"
  },
  "bi-pole": {
    "name": "Bi:pole",
    "slug": "bi-pole",
    "street_address": "FRICHE LA, 41 Rue Jobin, 13003 Marseille, France",
    "postal_code": "13003",
    "city": "Marseille",
    "latitude": 43.31048,
    "longitude": 5.3901924,
    "source_url": "https://shotgun.live/fr/venues/bi-pole"
  },
  "bohemia": {
    "name": "Bohemia",
    "slug": "bohemia",
    "street_address": "23 Rue Saint-Saëns, 13001 Marseille, France",
    "postal_code": "13001",
    "city": "Marseille",
    "latitude": 43.293381,
    "longitude": 5.3738487,
    "source_url": "https://shotgun.live/fr/venues/bohemia"
  },
  "boom-boom-marseille": {
    "name": "Boom Boom Marseille",
    "slug": "boom-boom-marseille",
    "street_address": "29 Rue Saint-Saëns, 13001 Marseille, France",
    "postal_code": "13001",
    "city": "Marseille",
    "latitude": 43.2930408,
    "longitude": 5.3723155,
    "source_url": "https://shotgun.live/fr/venues/boom-boom-marseille"
  },
  "boum-marseille": {
    "name": "BOUM Marseille",
    "slug": "boum-marseille",
    "street_address": "21 Rue André Poggioli, 13006 Marseille, France",
    "postal_code": "13006",
    "city": "Marseille",
    "latitude": 43.2934532,
    "longitude": 5.3852521,
    "source_url": "https://shotgun.live/fr/venues/boum-marseille"
  },
  "cabaret-aleatoire": {
    "name": "Cabaret Aléatoire",
    "slug": "cabaret-aleatoire",
    "street_address": "41 Rue Jobin, 13003 Marseille, France",
    "postal_code": "13003",
    "city": "Marseille",
    "latitude": 43.309633,
    "longitude": 5.3903188,
    "source_url": "https://shotgun.live/fr/venues/cabaretaleatoire"
  },
  "d-oz-machine": {
    "name": "D'Oz Machine",
    "slug": "d-oz-machine",
    "street_address": "40 Boulevard Jacques Saadé, 13002 Marseille, France",
    "postal_code": "13002",
    "city": "Marseille",
    "latitude": 43.3003721,
    "longitude": 5.364239,
    "source_url": "https://shotgun.live/fr/venues/d-oz-machine"
  },
  "danceteria": {
    "name": "danceteria",
    "slug": "danceteria",
    "street_address": "18 Rue Saint-Saëns, 13001 Marseille, France",
    "postal_code": "13001",
    "city": "Marseille",
    "latitude": 43.2938344,
    "longitude": 5.3751483,
    "source_url": "https://shotgun.live/fr/venues/danceteria"
  },
  "dynam-hit": {
    "name": "Dynam'hit",
    "slug": "dynam-hit",
    "street_address": "1 Rue des Trois Rois, 13006 Marseille, France",
    "postal_code": "13006",
    "city": "Marseille",
    "latitude": 43.2944966,
    "longitude": 5.3846011,
    "source_url": "https://shotgun.live/fr/venues/dynam-hit"
  },
  "esquina-tropical": {
    "name": "Esquina tropical",
    "slug": "esquina-tropical",
    "street_address": "41 Bd Michelet Centre commercial Prado Shopping, 3ème étage, 13008 Marseille, France",
    "postal_code": "13008",
    "city": "Marseille",
    "latitude": 43.2700267,
    "longitude": 5.3936317,
    "source_url": "https://shotgun.live/fr/venues/esquina-tropical"
  },
  "gellor-events": {
    "name": "GELLOR EVENTS",
    "slug": "gellor-events",
    "street_address": "44 Rue Saint-Saëns, 13001 Marseille, France",
    "postal_code": "13001",
    "city": "Marseille",
    "latitude": 43.2931859,
    "longitude": 5.3720769,
    "source_url": "https://shotgun.live/fr/venues/gellor-events"
  },
  "inda-agengy": {
    "name": "INDA AGENGY",
    "slug": "inda-agengy",
    "street_address": "Plage de Portissol, 83110 Sanary-sur-Mer, France",
    "postal_code": "83110",
    "city": "Sanary-Sur-Mer",
    "latitude": 43.1153785,
    "longitude": 5.7905163,
    "source_url": "https://shotgun.live/fr/venues/inda"
  },
  "ipn-aix-en-provence": {
    "name": "IPN Aix-en-Provence",
    "slug": "ipn-aix-en-provence",
    "street_address": "23 Cours Sextius, 13100 Aix-en-Provence, France",
    "postal_code": "13100",
    "city": "Aix-En-Provence",
    "latitude": 43.5288065,
    "longitude": 5.4440602,
    "source_url": "https://shotgun.live/fr/venues/ipnaix"
  },
  "kuroiheya": {
    "name": "KUROIHEYA",
    "slug": "kuroiheya",
    "street_address": "31 Rue d'Endoume, 13007 Marseille, France",
    "postal_code": "13007",
    "city": "Marseille",
    "latitude": 43.290356,
    "longitude": 5.3664955,
    "source_url": "https://shotgun.live/fr/venues/kuroiheya"
  },
  "l-affranchi": {
    "name": "L'Affranchi",
    "slug": "l-affranchi",
    "street_address": "212 Boulevard de Saint-Marcel, 13011 Marseille, France",
    "postal_code": "13011",
    "city": "Marseille",
    "latitude": 43.2865,
    "longitude": 5.4675,
    "source_url": "https://shotgun.live/fr/venues/l-affranchi"
  },
  "la-mez": {
    "name": "LA MEZ",
    "slug": "la-mez",
    "street_address": "22 Rue Jobin, 13003 Marseille, France",
    "postal_code": "13003",
    "city": "Marseille",
    "latitude": 43.3105232,
    "longitude": 5.389208,
    "source_url": "https://shotgun.live/fr/venues/la-mez"
  },
  "la-traverse-de-balkis": {
    "name": "La Traverse De Balkis",
    "slug": "la-traverse-de-balkis",
    "street_address": "1 Rue des Trois Rois, 13006 Marseille, France",
    "postal_code": "13006",
    "city": "Marseille",
    "latitude": 43.2944966,
    "longitude": 5.3846011,
    "source_url": "https://shotgun.live/fr/venues/la-traverse-de-balkis"
  },
  "le-bouge-marseille": {
    "name": "Le Bouge Marseille",
    "slug": "le-bouge-marseille",
    "street_address": "21 Cours Honoré d'Estienne d'Orves, 13001 Marseille, France",
    "postal_code": "13001",
    "city": "Marseille",
    "latitude": 43.2926142,
    "longitude": 5.37373,
    "source_url": "https://shotgun.live/fr/venues/le-bouge-marseille"
  },
  "le-makeda": {
    "name": "Le Makeda",
    "slug": "le-makeda",
    "street_address": "103 Rue Ferrari, 13005 Marseille, France",
    "postal_code": "13005",
    "city": "Marseille",
    "latitude": 43.2932951,
    "longitude": 5.3918093,
    "source_url": "https://shotgun.live/fr/venues/le-makeda"
  },
  "les-folies-mondaines-de-madame": {
    "name": "Les Folies Mondaines de Madame",
    "slug": "les-folies-mondaines-de-madame",
    "street_address": "16 Rue de la Paix Marcel Paul, 13001 Marseille, France",
    "postal_code": "13001",
    "city": "Marseille",
    "latitude": 43.2929067,
    "longitude": 5.3723486,
    "source_url": "https://shotgun.live/fr/venues/lesfoliesmondaines"
  },
  "level-up-project": {
    "name": "Level Up Project",
    "slug": "level-up-project",
    "street_address": "3 Place Paul Cézanne, 13006 Marseille, France",
    "postal_code": "13006",
    "city": "Marseille",
    "latitude": 43.2926993,
    "longitude": 5.3831761,
    "source_url": "https://shotgun.live/fr/venues/level-up-project"
  },
  "mama-shelter-marseille": {
    "name": "MAMA SHELTER - MARSEILLE",
    "slug": "mama-shelter-marseille",
    "street_address": "64 Rue de la Loubière, 13006 Marseille, France",
    "postal_code": "13006",
    "city": "Marseille",
    "latitude": 43.2905044,
    "longitude": 5.3888934,
    "source_url": "https://shotgun.live/fr/venues/mama-shelter-marseille"
  },
  "manray-club": {
    "name": "Manray club",
    "slug": "manray-club",
    "street_address": "38 Rue Saint-Saëns, 13001 Marseille, France",
    "postal_code": "13001",
    "city": "Marseille",
    "latitude": 43.2932522,
    "longitude": 5.3725898,
    "source_url": "https://shotgun.live/fr/venues/manrayclub"
  },
  "omic": {
    "name": "Omic",
    "slug": "omic",
    "street_address": "3261 Avenue de la Résistance, 83100 Toulon, France",
    "postal_code": "83100",
    "city": "Toulon",
    "latitude": 43.1097695,
    "longitude": 5.9802583,
    "source_url": "https://shotgun.live/fr/venues/omic"
  },
  "papacito": {
    "name": "PAPACITO",
    "slug": "papacito",
    "street_address": "45 Rue Sainte, 13001 Marseille, France",
    "postal_code": "13001",
    "city": "Marseille",
    "latitude": 43.2921654,
    "longitude": 5.3741959,
    "source_url": "https://shotgun.live/fr/venues/papacito"
  },
  "pulse-friction-marseille": {
    "name": "Pulse Friction Marseille",
    "slug": "pulse-friction-marseille",
    "street_address": "1 Rue des Trois Rois, 13006 Marseille, France",
    "postal_code": "13006",
    "city": "Marseille",
    "latitude": 43.2944966,
    "longitude": 5.3846011,
    "source_url": "https://shotgun.live/fr/venues/pulse-friction-marseille"
  },
  "rockypop-marseille": {
    "name": "RockyPop Marseille",
    "slug": "rockypop-marseille",
    "street_address": "60 Rue du Rouet, 13006 Marseille, France",
    "postal_code": "13006",
    "city": "Marseille",
    "latitude": 43.2829677,
    "longitude": 5.3871689,
    "source_url": "https://shotgun.live/fr/venues/rocky-pop-marseille"
  },
  "static": {
    "name": "STATIC",
    "slug": "static",
    "street_address": "54 Avenue de Montredon, 13008 Marseille, France",
    "postal_code": "13008",
    "city": "Marseille",
    "latitude": 43.2442546,
    "longitude": 5.3705255,
    "source_url": "https://shotgun.live/fr/venues/static"
  },
  "sunny-comedy-club": {
    "name": "SUNNY COMEDY CLUB",
    "slug": "sunny-comedy-club",
    "street_address": "5 Rue Jean-Marc Cathala, 13002 Marseille, France",
    "postal_code": "13002",
    "city": "Marseille",
    "latitude": 43.301299,
    "longitude": 5.3711523,
    "source_url": "https://shotgun.live/fr/venues/sunny-comedy-club"
  },
  "trackass": {
    "name": "Trackass",
    "slug": "trackass",
    "street_address": "44 Cours Julien, 13006 Marseille, France",
    "postal_code": "13006",
    "city": "Marseille",
    "latitude": 43.2947156,
    "longitude": 5.3827035,
    "source_url": "https://shotgun.live/fr/venues/trackass"
  },
  "transverse-club": {
    "name": "Transverse Club",
    "slug": "transverse-club",
    "street_address": "24 Quai de Rive Neuve, 13007 Marseille, France",
    "postal_code": "13007",
    "city": "Marseille",
    "latitude": 43.2928749,
    "longitude": 5.3696364,
    "source_url": "https://shotgun.live/fr/venues/transverse-club"
  },
  "vertigo-marseille": {
    "name": "Vertigo Marseille",
    "slug": "vertigo-marseille",
    "street_address": "75 Rue Sainte, 13007 Marseille, France",
    "postal_code": "13007",
    "city": "Marseille",
    "latitude": 43.2915848,
    "longitude": 5.3716131,
    "source_url": "https://shotgun.live/fr/venues/vertigo-marseille"
  },
  "vice-versa-marseille": {
    "name": "vice.versa.marseille",
    "slug": "vice-versa-marseille",
    "street_address": "40 Rue des Trois Rois, 13006 Marseille, France",
    "postal_code": "13006",
    "city": "Marseille",
    "latitude": 43.293427,
    "longitude": 5.3850598,
    "source_url": "https://shotgun.live/fr/venues/vice-versa-marseille"
  },
  "village-42": {
    "name": "VILLAGE 42",
    "slug": "village-42",
    "street_address": "160 Rue Pascal Duverger, 13090 Aix-en-Provence, France",
    "postal_code": "13090",
    "city": "Aix-En-Provence",
    "latitude": 43.5192132,
    "longitude": 5.4224053,
    "source_url": "https://shotgun.live/fr/venues/village-42"
  }
}