{
  "6mic": {
    "name": "6MIC",
    "slug": "6mic",
    "street_address": "160 Rue Pascal Duverger, 13090 Aix-en-Provence, France",
    "postal_code": "13090",
    "city": "Aix-En-Provence",
    "latitude": 43.5192132,
    "longitude": 5.4224053,
    "source_url": "https://shotgun.live/fr/venues/6-mic"
  },
  "baby-club": {
    "name": "Baby club",
    "slug": "baby-club",
    "street_address": "2 Rue André Poggioli, 13006 Marseille, France",
    "postal_code": "13006",
    "city": "Marseille",
    "latitude": 43.2940988,
    "longitude": 5.3854241,
    "source_url": "https://shotgun.live/fr/venues/baby-club"
  },
  "bi-pole": {
    "name": "Bi:pole",
    "slug": "bi-pole",
    "street_address": "FRICHE LA, 41 Rue Jobin, 13003 Marseille, France",
    "postal_code": "13003",
    "city": "Marseille",
    "latitude": 43.31048,
    "longitude": 5.3901924,
    "source_url": "https://shotgun.live/fr/venues/bi-pole"
  },
  "boite-a-malice": {
    "name": "BOÎTE À MALICE",
    "slug": "boite-a-malice",
    "postal_code": "13014",
    "city": "Marseille",
    "latitude": 43.3187841,
    "longitude": 5.3799132,
    "source_url": "https://shotgun.live/fr/venues/bam"
  },
  "boum-marseille": {
    "name": "BOUM Marseille",
    "slug": "boum-marseille",
    "street_address": "21 Rue André Poggioli, 13006 Marseille, France",
    "postal_code": "13006",
    "city": "Marseille",
    "latitude": 43.2934532,
    "longitude": 5.3852521,
    "source_url": "https://shotgun.live/fr/venues/boum-marseille"
  },
  "cabaret-aleatoire": {
    "name": "Cabaret Aléatoire",
    "slug": "cabaret-aleatoire",
    "street_address": "41 Rue Jobin, 13003 Marseille, France",
    "postal_code": "13003",
    "city": "Marseille",
    "latitude": 43.309633,
    "longitude": 5.3903188,
    "source_url": "https://shotgun.live/fr/venues/cabaretaleatoire"
  },
  "dionysiac-tour": {
    "name": "Dionysiac Tour",
    "slug": "dionysiac-tour",
    "street_address": "3 Place Paul Cézanne, 13006 Marseille, France",
    "postal_code": "13006",
    "city": "Marseille",
    "latitude": 43.2926993,
    "longitude": 5.3831761,
    "source_url": "https://shotgun.live/fr/venues/dionysiac-tour"
  },
  "esquina-tropical": {
    "name": "Esquina tropical",
    "slug": "esquina-tropical",
    "street_address": "41 Bd Michelet Centre commercial Prado Shopping, 3ème étage, 13008 Marseille, France",
    "postal_code": "13008",
    "city": "Marseille",
    "latitude": 43.2700267,
    "longitude": 5.3936317,
    "source_url": "https://shotgun.live/fr/venues/esquina-tropical"
  },
  "fai-virar": {
    "name": "FAI VIRAR",
    "slug": "fai-virar",
    "street_address": "331 Avenue du Prado, 13008 Marseille, France",
    "postal_code": "13008",
    "city": "Marseille",
    "latitude": 43.270671,
    "longitude": 5.3893019,
    "source_url": "https://shotgun.live/fr/venues/fai-virar"
  },
  "faranight-clubbing": {
    "name": "FaraNight Clubbing",
    "slug": "faranight-clubbing",
    "street_address": "7 Montée Commandant de Robien, 13011 Marseille, France",
    "postal_code": "13011",
    "city": "Marseille",
    "latitude": 43.2899542,
    "longitude": 5.4841275,
    "source_url": "https://shotgun.live/fr/venues/fara-night-clubbing"
  },
  "hardcult": {
    "name": "HARDCULT",
    "slug": "hardcult",
    "street_address": "141 Route Léon Lachamp, 13009 Marseille, France",
    "postal_code": "13009",
    "city": "Marseille",
    "latitude": 43.2490008,
    "longitude": 5.4408719,
    "source_url": "https://shotgun.live/fr/venues/hardcult"
  },
  "la-mescla-festival": {
    "name": "La Mescla Festival",
    "slug": "la-mescla-festival",
    "street_address": "40 Boulevard Jacques Saadé, 13002 Marseille, France",
    "postal_code": "13002",
    "city": "Marseille",
    "latitude": 43.3003721,
    "longitude": 5.364239,
    "source_url": "https://shotgun.live/fr/venues/la-mescla-festival"
  },
  "la-sas-concerts": {
    "name": "LA SAS CONCERTS",
    "slug": "la-sas-concerts",
    "street_address": "35 Quai du Lazaret, 13002 Marseille, France",
    "postal_code": "13002",
    "city": "Marseille",
    "latitude": 43.3105251,
    "longitude": 5.3665702,
    "source_url": "https://shotgun.live/fr/venues/la-sas-concerts"
  },
  "le-chapiteau-marseille": {
    "name": "Le Chapiteau - marseille",
    "slug": "le-chapiteau-marseille",
    "street_address": "38 Traverse Notre Dame du Bon Secours, 13003 Marseille, France",
    "postal_code": "13003",
    "city": "Marseille",
    "latitude": 43.3148239,
    "longitude": 5.3862458,
    "source_url": "https://shotgun.live/fr/venues/le-chapiteau-marseille"
  },
  "le-makeda": {
    "name": "Le Makeda",
    "slug": "le-makeda",
    "street_address": "103 Rue Ferrari, 13005 Marseille, France",
    "postal_code": "13005",
    "city": "Marseille",
    "latitude": 43.2932951,
    "longitude": 5.3918093,
    "source_url": "https://shotgun.live/fr/venues/le-makeda"
  },
  "le-nucleaire-marseille": {
    "name": "Le Nucléaire Marseille",
    "slug": "le-nucleaire-marseille",
    "street_address": "15 Rue André Poggioli, 13006 Marseille, France",
    "postal_code": "13006",
    "city": "Marseille",
    "latitude": 43.2936524,
    "longitude": 5.3853954,
    "source_url": "https://shotgun.live/fr/venues/le-nucleaire-marseille"
  },
  "mama-shelter-marseille": {
    "name": "MAMA SHELTER - MARSEILLE",
    "slug": "mama-shelter-marseille",
    "street_address": "64 Rue de la Loubière, 13006 Marseille, France",
    "postal_code": "13006",
    "city": "Marseille",
    "latitude": 43.2905044,
    "longitude": 5.3888934,
    "source_url": "https://shotgun.live/fr/venues/mama-shelter-marseille"
  },
  "manray-club": {
    "name": "Manray club",
    "slug": "manray-club",
    "street_address": "38 Rue Saint-Saëns, 13001 Marseille, France",
    "postal_code": "13001",
    "city": "Marseille",
    "latitude": 43.2932522,
    "longitude": 5.3725898,
    "source_url": "https://shotgun.live/fr/venues/manrayclub"
  },
  "rockypop-marseille": {
    "name": "RockyPop Marseille",
    "slug": "rockypop-marseille",
    "street_address": "60 Rue du Rouet, 13006 Marseille, France",
    "postal_code": "13006",
    "city": "Marseille",
    "latitude": 43.2829677,
    "longitude": 5.3871689,
    "source_url": "https://shotgun.live/fr/venues/rocky-pop-marseille"
  },
  "shafro": {
    "name": "SHAFRO",
    "slug": "shafro",
    "street_address": "38 Rue Saint-Saëns, 13001 Marseille, France",
    "postal_code": "13001",
    "city": "Marseille",
    "latitude": 43.2932522,
    "longitude": 5.3725898,
    "source_url": "https://shotgun.live/fr/venues/shafro"
  },
  "sunny-comedy-club": {
    "name": "SUNNY COMEDY CLUB",
    "slug": "sunny-comedy-club",
    "street_address": "1 Place du 8 Mai 1945, 13500 Martigues, France",
    "postal_code": "13500",
    "city": "Martigues",
    "latitude": 43.3991678,
    "longitude": 5.0567998,
    "source_url": "https://shotgun.live/fr/venues/sunny-comedy-club"
  },
  "tos-event": {
    "name": "TOS EVENT",
    "slug": "tos-event",
    "street_address": "97 Promenade Georges Pompidou, 13008 Marseille, France",
    "postal_code": "13008",
    "city": "Marseille",
    "latitude": 43.2627396,
    "longitude": 5.3745917,
    "source_url": "https://shotgun.live/fr/venues/tos-event"
  },
  "vertigo-marseille": {
    "name": "Vertigo Marseille",
    "slug": "vertigo-marseille",
    "street_address": "75 Rue Sainte, 13007 Marseille, France",
    "postal_code": "13007",
    "city": "Marseille",
    "latitude": 43.2915848,
    "longitude": 5.3716131,
    "source_url": "https://shotgun.live/fr/venues/vertigo-marseille"
  },
  "vice-versa-marseille": {
    "name": "vice.versa.marseille",
    "slug": "vice-versa-marseille",
    "street_address": "40 Rue des Trois Rois, 13006 Marseille, France",
    "postal_code": "13006",
    "city": "Marseille",
    "latitude": 43.293427,
    "longitude": 5.3850598,
    "source_url": "https://shotgun.live/fr/venues/vice-versa-marseille"
  }
}