{
  "6mic": {
    "name": "6MIC",
    "slug": "6mic",
    "street_address": "160 Rue Pascal Duverger, 13090 Aix-en-Provence, France",
    "postal_code": "13090",
    "city": "Aix-En-Provence",
    "latitude": 43.5192132,
    "longitude": 5.4224053,
    "source_url": "https://shotgun.live/fr/venues/6-mic"
  },
  "assumrecords": {
    "name": "assumrecords",
    "slug": "assumrecords",
    "street_address": "2 Rue d'Entrecasteaux, 13100 Aix-en-Provence, France",
    "postal_code": "13100",
    "city": "Aix-En-Provence",
    "latitude": 43.5286672,
    "longitude": 5.4452034,
    "source_url": "https://shotgun.live/fr/venues/assumrecords"
  },
  "baby-club": {
    "name": "Baby club",
    "slug": "baby-club",
    "street_address": "2 Rue André Poggioli, 13006 Marseille, France",
    "postal_code": "13006",
    "city": "Marseille",
    "latitude": 43.2940988,
    "longitude": 5.3854241,
    "source_url": "https://shotgun.live/fr/venues/baby-club"
  },
  "bi-pole": {
    "name": "Bi:pole",
    "slug": "bi-pole",
    "street_address": "41 Rue Jobin, 13003 Marseille, France",
    "postal_code": "13003",
    "city": "Marseille",
    "latitude": 43.31048,
    "longitude": 5.3901924,
    "source_url": "https://shotgun.live/fr/venues/bi-pole"
  },
  "boum-marseille": {
    "name": "BOUM Marseille",
    "slug": "boum-marseille",
    "street_address": "21 Rue André Poggioli, 13006 Marseille, France",
    "postal_code": "13006",
    "city": "Marseille",
    "latitude": 43.2934532,
    "longitude": 5.3852521,
    "source_url": "https://shotgun.live/fr/venues/boum-marseille"
  },
  "danceteria": {
    "name": "danceteria",
    "slug": "danceteria",
    "street_address": "18 Rue Saint-Saëns, 13001 Marseille, France",
    "postal_code": "13001",
    "city": "Marseille",
    "latitude": 43.2938344,
    "longitude": 5.3751483,
    "source_url": "https://shotgun.live/fr/venues/danceteria"
  },
  "esquina-tropical": {
    "name": "Esquina tropical",
    "slug": "esquina-tropical",
    "street_address": "64 Rue de la Loubière, 13006 Marseille, France",
    "postal_code": "13006",
    "city": "Marseille",
    "latitude": 43.2905044,
    "longitude": 5.3888934,
    "source_url": "https://shotgun.live/fr/venues/esquina-tropical"
  },
  "groovity-marseille": {
    "name": "Groovity Marseille",
    "slug": "groovity-marseille",
    "street_address": "15 Quai de Rive Neuve, 13007 Marseille, France",
    "postal_code": "13007",
    "city": "Marseille",
    "latitude": 43.2930273,
    "longitude": 5.370744,
    "source_url": "https://shotgun.live/fr/venues/groovity-marseille"
  },
  "hardcult": {
    "name": "HARDCULT",
    "slug": "hardcult",
    "street_address": "141 Route Léon Lachamp, 13009 Marseille, France",
    "postal_code": "13009",
    "city": "Marseille",
    "latitude": 43.2489538,
    "longitude": 5.4406028,
    "source_url": "https://shotgun.live/fr/venues/hardcult"
  },
  "hemera": {
    "name": "HEMERA",
    "slug": "hemera",
    "street_address": "23 Avenue de Corinthe, 13006 Marseille, France",
    "postal_code": "13006",
    "city": "Marseille",
    "latitude": 43.2833916,
    "longitude": 5.3904224,
    "source_url": "https://shotgun.live/fr/venues/hemera"
  },
  "hit-the-ground": {
    "name": "HIT THE GROUND",
    "slug": "hit-the-ground",
    "street_address": "1 Rue des Trois Rois, 13006 Marseille, France",
    "postal_code": "13006",
    "city": "Marseille",
    "latitude": 43.2944966,
    "longitude": 5.3846011,
    "source_url": "https://shotgun.live/fr/venues/hit-the-ground"
  },
  "ipn-aix-en-provence": {
    "name": "IPN Aix-en-Provence",
    "slug": "ipn-aix-en-provence",
    "street_address": "23 Cours Sextius, 13100 Aix-en-Provence, France",
    "postal_code": "13100",
    "city": "Aix-En-Provence",
    "latitude": 43.5288065,
    "longitude": 5.4440602,
    "source_url": "https://shotgun.live/fr/venues/ipnaix"
  },
  "joco": {
    "name": "JoCo",
    "slug": "joco",
    "street_address": "10 Boulevard Garibaldi, 13001 Marseille, France",
    "postal_code": "13001",
    "city": "Marseille",
    "latitude": 43.2969701,
    "longitude": 5.3809283,
    "source_url": "https://shotgun.live/fr/venues/jo-co"
  },
  "kuroiheya": {
    "name": "KUROIHEYA",
    "slug": "kuroiheya",
    "street_address": "21 Cours Honoré d'Estienne d'Orves, 13001 Marseille, France",
    "postal_code": "13001",
    "city": "Marseille",
    "latitude": 43.2925042,
    "longitude": 5.3737622,
    "source_url": "https://shotgun.live/fr/venues/kuroiheya"
  },
  "la-bringue-girls-only": {
    "name": "La Bringue Girls Only",
    "slug": "la-bringue-girls-only",
    "street_address": "40 Boulevard Jacques Saadé, 13002 Marseille, France",
    "postal_code": "13002",
    "city": "Marseille",
    "latitude": 43.3003721,
    "longitude": 5.364239,
    "source_url": "https://shotgun.live/fr/venues/la-bringue-girls-only"
  },
  "la-traverse-de-balkis": {
    "name": "La Traverse De Balkis",
    "slug": "la-traverse-de-balkis",
    "street_address": "1 Rue des Trois Rois, 13006 Marseille, France",
    "postal_code": "13006",
    "city": "Marseille",
    "latitude": 43.2944966,
    "longitude": 5.3846011,
    "source_url": "https://shotgun.live/fr/venues/la-traverse-de-balkis"
  },
  "le-bazar": {
    "name": "LE BAZAR",
    "slug": "le-bazar",
    "street_address": "90 Boulevard Rabatau, 13008 Marseille, France",
    "postal_code": "13008",
    "city": "Marseille",
    "latitude": 43.2763808,
    "longitude": 5.397904,
    "source_url": "https://shotgun.live/fr/venues/la-palmeraie"
  },
  "le-bouge-marseille": {
    "name": "Le Bouge Marseille",
    "slug": "le-bouge-marseille",
    "street_address": "21 Cours Honoré d'Estienne d'Orves, 13001 Marseille, France",
    "postal_code": "13001",
    "city": "Marseille",
    "latitude": 43.2926142,
    "longitude": 5.37373,
    "source_url": "https://shotgun.live/fr/venues/le-bouge-marseille"
  },
  "le-makeda": {
    "name": "Le Makeda",
    "slug": "le-makeda",
    "street_address": "103 Rue Ferrari, 13005 Marseille, France",
    "postal_code": "13005",
    "city": "Marseille",
    "latitude": 43.2932951,
    "longitude": 5.3918093,
    "source_url": "https://shotgun.live/fr/venues/le-makeda"
  },
  "lestaminet-matinal": {
    "name": "L’estaminet matinal",
    "slug": "lestaminet-matinal",
    "street_address": "12, 14 Place Notre Dame du Mont, 13006 Marseille, France",
    "postal_code": "13006",
    "city": "Marseille",
    "latitude": 43.2919451,
    "longitude": 5.3837512,
    "source_url": "https://shotgun.live/fr/venues/l-estaminet-matinal"
  },
  "marsatac": {
    "name": "Marsatac",
    "slug": "marsatac",
    "street_address": "Montée du Souvenir Français, 13007 Marseille, France",
    "postal_code": "13007",
    "city": "Marseille",
    "latitude": 43.2920985,
    "longitude": 5.3627544,
    "source_url": "https://shotgun.live/fr/venues/marsatac"
  },
  "r2-le-rooftop": {
    "name": "R2 LE ROOFTOP",
    "slug": "r2-le-rooftop",
    "street_address": "9 Quai du Lazaret, 13002 Marseille, France",
    "postal_code": "13002",
    "city": "Marseille",
    "latitude": 43.3067576,
    "longitude": 5.364598,
    "source_url": "https://shotgun.live/fr/venues/r2-le-rooftop"
  },
  "rockypop-marseille": {
    "name": "RockyPop Marseille",
    "slug": "rockypop-marseille",
    "street_address": "60 Rue du Rouet, 13006 Marseille, France",
    "postal_code": "13006",
    "city": "Marseille",
    "latitude": 43.2829677,
    "longitude": 5.3871689,
    "source_url": "https://shotgun.live/fr/venues/rocky-pop-marseille"
  },
  "rooftop-massilia-beach": {
    "name": "Rooftop Massilia Beach",
    "slug": "rooftop-massilia-beach",
    "street_address": "41 Boulevard Michelet, 13008 Marseille, France",
    "postal_code": "13008",
    "city": "Marseille",
    "latitude": 43.269827,
    "longitude": 5.3958873,
    "source_url": "https://shotgun.live/fr/venues/rooftop-massilia-beach"
  },
  "session-32": {
    "name": "Session 32",
    "slug": "session-32",
    "street_address": "40 Boulevard Jacques Saadé, 13002 Marseille, France",
    "postal_code": "13002",
    "city": "Marseille",
    "latitude": 43.3003721,
    "longitude": 5.364239,
    "source_url": "https://shotgun.live/fr/venues/session-32"
  },
  "sincera-folia": {
    "name": "Sincera Folìa",
    "slug": "sincera-folia",
    "street_address": "2 Boulevard Jacques Saadé, 13002 Marseille, France",
    "postal_code": "13002",
    "city": "Marseille",
    "latitude": 43.2999293,
    "longitude": 5.3650149,
    "source_url": "https://shotgun.live/fr/venues/sincera-folia"
  },
  "sport-beach-marseille": {
    "name": "SPORT BEACH MARSEILLE",
    "slug": "sport-beach-marseille",
    "street_address": "138 Avenue Pierre Mendès France, 13008 Marseille, France",
    "postal_code": "13008",
    "city": "Marseille",
    "latitude": 43.2555503,
    "longitude": 5.3759943,
    "source_url": "https://shotgun.live/fr/venues/sport-beach-marseille"
  },
  "sunny-comedy-club": {
    "name": "SUNNY COMEDY CLUB",
    "slug": "sunny-comedy-club",
    "street_address": "5 Rue Jean-Marc Cathala, 13002 Marseille, France",
    "postal_code": "13002",
    "city": "Marseille",
    "latitude": 43.301299,
    "longitude": 5.3711523,
    "source_url": "https://shotgun.live/fr/venues/sunny-comedy-club"
  },
  "transverse-club": {
    "name": "Transverse Club",
    "slug": "transverse-club",
    "street_address": "24 Quai de Rive Neuve, 13007 Marseille, France",
    "postal_code": "13007",
    "city": "Marseille",
    "latitude": 43.2928749,
    "longitude": 5.3696364,
    "source_url": "https://shotgun.live/fr/venues/transverse-club"
  },
  "unite-22": {
    "name": "Unité.22",
    "slug": "unite-22",
    "street_address": "22 Rue Jobin, 13003 Marseille, France",
    "postal_code": "13003",
    "city": "Marseille",
    "latitude": 43.3105232,
    "longitude": 5.389208,
    "source_url": "https://shotgun.live/fr/venues/unite-22"
  },
  "vertigo-marseille": {
    "name": "Vertigo Marseille",
    "slug": "vertigo-marseille",
    "street_address": "75 Rue Sainte, 13007 Marseille, France",
    "postal_code": "13007",
    "city": "Marseille",
    "latitude": 43.2915848,
    "longitude": 5.3716131,
    "source_url": "https://shotgun.live/fr/venues/vertigo-marseille"
  },
  "vice-versa-marseille": {
    "name": "vice.versa.marseille",
    "slug": "vice-versa-marseille",
    "street_address": "40 Rue des Trois Rois, 13006 Marseille, France",
    "postal_code": "13006",
    "city": "Marseille",
    "latitude": 43.293427,
    "longitude": 5.3850598,
    "source_url": "https://shotgun.live/fr/venues/vice-versa-marseille"
  },
  "voltaire-record": {
    "name": "VOLTAIRE RECORD",
    "slug": "voltaire-record",
    "street_address": "1506 Avenue du Capitaine de Corvette Paul Brutus, 13170 Les Pennes-Mirabeau, France",
    "postal_code": "13170",
    "city": "Les Pennes-Mirabeau",
    "latitude": 43.3983384,
    "longitude": 5.3236174,
    "source_url": "https://shotgun.live/fr/venues/voltaire-record"
  },
  "we-are-kultr": {
    "name": "WE ARE KULTR",
    "slug": "we-are-kultr",
    "street_address": "125 La Canebière, 13001 Marseille, France",
    "postal_code": "13001",
    "city": "Marseille",
    "latitude": 43.2985544,
    "longitude": 5.3829705,
    "source_url": "https://shotgun.live/fr/venues/we-are-kultr"
  }
}