{
  "baby-club": {
    "name": "Baby club",
    "slug": "baby-club",
    "street_address": "2 Rue André Poggioli, 13006 Marseille, France",
    "postal_code": "13006",
    "city": "Marseille",
    "latitude": 43.2940988,
    "longitude": 5.3854241,
    "source_url": "https://shotgun.live/fr/venues/baby-club"
  },
  "barta-club": {
    "name": "Barta Club",
    "slug": "barta-club",
    "street_address": "83 Avenue de la Pointe Rouge, 13008 Marseille, France",
    "postal_code": "13008",
    "city": "Marseille",
    "latitude": 43.2453385,
    "longitude": 5.3740646,
    "source_url": "https://shotgun.live/fr/venues/barta-club"
  },
  "bi-pole": {
    "name": "Bi:pole",
    "slug": "bi-pole",
    "street_address": "41 Rue Jobin, 13003 Marseille, France",
    "postal_code": "13003",
    "city": "Marseille",
    "latitude": 43.31048,
    "longitude": 5.3901924,
    "source_url": "https://shotgun.live/fr/venues/bi-pole"
  },
  "cabaret-aleatoire": {
    "name": "Cabaret Aléatoire",
    "slug": "cabaret-aleatoire",
    "street_address": "41 Rue Jobin, 13003 Marseille, France",
    "postal_code": "13003",
    "city": "Marseille",
    "latitude": 43.309633,
    "longitude": 5.3903188,
    "source_url": "https://shotgun.live/fr/venues/cabaretaleatoire"
  },
  "cicada": {
    "name": "CICADA",
    "slug": "cicada",
    "street_address": "71 Rue Marcelin Berthelot, 83130 La Garde, France",
    "postal_code": "83130",
    "city": "La Garde",
    "latitude": 43.1494511,
    "longitude": 6.0410164,
    "source_url": "https://shotgun.live/fr/venues/cicada"
  },
  "danceteria": {
    "name": "danceteria",
    "slug": "danceteria",
    "street_address": "18 Rue Saint-Saëns, 13001 Marseille, France",
    "postal_code": "13001",
    "city": "Marseille",
    "latitude": 43.2938344,
    "longitude": 5.3751483,
    "source_url": "https://shotgun.live/fr/venues/danceteria"
  },
  "darkroom": {
    "name": "Darkroom",
    "slug": "darkroom",
    "street_address": "Rue de l'Équerre, 83000 Toulon, France",
    "postal_code": "83000",
    "city": "Toulon",
    "latitude": 43.1227262,
    "longitude": 5.930263,
    "source_url": "https://shotgun.live/fr/venues/darkroomm"
  },
  "esquina-tropical": {
    "name": "Esquina tropical",
    "slug": "esquina-tropical",
    "street_address": "125 La Canebière, 13001 Marseille, France",
    "postal_code": "13001",
    "city": "Marseille",
    "latitude": 43.2985544,
    "longitude": 5.3829705,
    "source_url": "https://shotgun.live/fr/venues/esquina-tropical"
  },
  "ipn-aix-en-provence": {
    "name": "IPN Aix-en-Provence",
    "slug": "ipn-aix-en-provence",
    "street_address": "23 Cours Sextius, 13100 Aix-en-Provence, France",
    "postal_code": "13100",
    "city": "Aix-En-Provence",
    "latitude": 43.5288065,
    "longitude": 5.4440602,
    "source_url": "https://shotgun.live/fr/venues/ipnaix"
  },
  "la-crique": {
    "name": "La Crique",
    "slug": "la-crique",
    "postal_code": "13014",
    "city": "Marseille",
    "latitude": 43.3296522,
    "longitude": 5.3723459,
    "source_url": "https://shotgun.live/fr/venues/la-crique"
  },
  "la-dame-noir": {
    "name": "La dame Noir",
    "slug": "la-dame-noir",
    "street_address": "24 Quai de Rive Neuve, 13001 Marseille, France",
    "postal_code": "13001",
    "city": "Marseille",
    "latitude": 43.292825,
    "longitude": 5.3696665,
    "source_url": "https://shotgun.live/fr/venues/la-dame-noir"
  },
  "la-degaine-marseille": {
    "name": "La Dégaine Marseille",
    "slug": "la-degaine-marseille",
    "street_address": "40 Boulevard Jacques Saadé, 13002 Marseille, France",
    "postal_code": "13002",
    "city": "Marseille",
    "latitude": 43.3003721,
    "longitude": 5.364239,
    "source_url": "https://shotgun.live/fr/venues/la-degaine-marseille"
  },
  "la-mez": {
    "name": "LA MEZ",
    "slug": "la-mez",
    "street_address": "22 Rue Jobin, 13003 Marseille, France",
    "postal_code": "13003",
    "city": "Marseille",
    "latitude": 43.3105232,
    "longitude": 5.389208,
    "source_url": "https://shotgun.live/fr/venues/la-mez"
  },
  "laperch": {
    "name": "LAPERCH",
    "slug": "laperch",
    "street_address": "22 Rue Jobin, 13003 Marseille, France",
    "postal_code": "13003",
    "city": "Marseille",
    "latitude": 43.3105232,
    "longitude": 5.389208,
    "source_url": "https://shotgun.live/fr/venues/laperch"
  },
  "le-bazar": {
    "name": "LE BAZAR",
    "slug": "le-bazar",
    "street_address": "90 Boulevard Rabatau, 13008 Marseille, France",
    "postal_code": "13008",
    "city": "Marseille",
    "latitude": 43.2763808,
    "longitude": 5.397904,
    "source_url": "https://shotgun.live/fr/venues/la-palmeraie"
  },
  "le-bouge-marseille": {
    "name": "Le Bouge Marseille",
    "slug": "le-bouge-marseille",
    "street_address": "21 Cours Honoré d'Estienne d'Orves, 13001 Marseille, France",
    "postal_code": "13001",
    "city": "Marseille",
    "latitude": 43.2926142,
    "longitude": 5.37373,
    "source_url": "https://shotgun.live/fr/venues/le-bouge-marseille"
  },
  "le-chapiteau-marseille": {
    "name": "Le Chapiteau - marseille",
    "slug": "le-chapiteau-marseille",
    "street_address": "38 Traverse Notre Dame du Bon Secours, 13003 Marseille, France",
    "postal_code": "13003",
    "city": "Marseille",
    "latitude": 43.3148239,
    "longitude": 5.3862458,
    "source_url": "https://shotgun.live/fr/venues/le-chapiteau-marseille"
  },
  "le-makeda": {
    "name": "Le Makeda",
    "slug": "le-makeda",
    "street_address": "103 Rue Ferrari, 13005 Marseille, France",
    "postal_code": "13005",
    "city": "Marseille",
    "latitude": 43.2932951,
    "longitude": 5.3918093,
    "source_url": "https://shotgun.live/fr/venues/le-makeda"
  },
  "le-marlin": {
    "name": "LE MARLIN",
    "slug": "le-marlin",
    "street_address": "7 Place aux Huiles, 13001 Marseille, France",
    "postal_code": "13001",
    "city": "Marseille",
    "latitude": 43.2931896,
    "longitude": 5.3718605,
    "source_url": "https://shotgun.live/fr/venues/le-marlin"
  },
  "le-nucleaire-marseille": {
    "name": "Le Nucléaire Marseille",
    "slug": "le-nucleaire-marseille",
    "street_address": "15 Rue André Poggioli, 13006 Marseille, France",
    "postal_code": "13006",
    "city": "Marseille",
    "latitude": 43.2936464,
    "longitude": 5.3853972,
    "source_url": "https://shotgun.live/fr/venues/le-nucleaire-marseille"
  },
  "lestaminet-matinal": {
    "name": "L’estaminet matinal",
    "slug": "lestaminet-matinal",
    "street_address": "14 Place Notre Dame du Mont, 13006 Marseille, France",
    "postal_code": "13006",
    "city": "Marseille",
    "latitude": 43.2919023,
    "longitude": 5.383813,
    "source_url": "https://shotgun.live/fr/venues/l-estaminet-matinal"
  },
  "maison-m": {
    "name": "Maison M",
    "slug": "maison-m",
    "street_address": "23 Rue Saint-Saëns, 13001 Marseille, France",
    "postal_code": "13001",
    "city": "Marseille",
    "latitude": 43.293381,
    "longitude": 5.3738487,
    "source_url": "https://shotgun.live/fr/venues/maison-m"
  },
  "manray-club": {
    "name": "Manray club",
    "slug": "manray-club",
    "street_address": "38 Rue Saint-Saëns, 13001 Marseille, France",
    "postal_code": "13001",
    "city": "Marseille",
    "latitude": 43.2932522,
    "longitude": 5.3725898,
    "source_url": "https://shotgun.live/fr/venues/manrayclub"
  },
  "marseille-comedy-club": {
    "name": "Marseille Comedy Club",
    "slug": "marseille-comedy-club",
    "street_address": "59 Rue de Rome, 13001 Marseille, France",
    "postal_code": "13001",
    "city": "Marseille",
    "latitude": 43.2934463,
    "longitude": 5.3796625,
    "source_url": "https://shotgun.live/fr/venues/marseille-comedy-club"
  },
  "musical-riot": {
    "name": "MUSICAL RIOT",
    "slug": "musical-riot",
    "street_address": "13127 Vitrolles, France",
    "postal_code": "13127",
    "city": "Vitrolles",
    "latitude": 43.4426832,
    "longitude": 5.2982687,
    "source_url": "https://shotgun.live/fr/venues/musical-riot"
  },
  "musicame-france": {
    "name": "Musicâme France",
    "slug": "musicame-france",
    "street_address": "Place Saint-Victor, 13007 Marseille, France",
    "postal_code": "13007",
    "city": "Marseille",
    "latitude": 43.2903502,
    "longitude": 5.3655664,
    "source_url": "https://shotgun.live/fr/venues/musicame-france"
  },
  "owarm13": {
    "name": "O’Warm13",
    "slug": "owarm13",
    "street_address": "5 Cours Gouffé 3 bis, 13006 Marseille, France",
    "postal_code": "13006",
    "city": "Marseille",
    "latitude": 43.2863561,
    "longitude": 5.3864252,
    "source_url": "https://shotgun.live/fr/venues/o-warm-13"
  },
  "paloma-bar-a-cocktails": {
    "name": "Paloma - bar à cocktails",
    "slug": "paloma-bar-a-cocktails",
    "street_address": "17 Rue André Poggioli, 13006 Marseille, France",
    "postal_code": "13006",
    "city": "Marseille",
    "latitude": 43.2935918,
    "longitude": 5.3853563,
    "source_url": "https://shotgun.live/fr/venues/paloma-bar-a-cocktails"
  },
  "pata-negra-loves-u": {
    "name": "Pata Negra Loves U",
    "slug": "pata-negra-loves-u",
    "street_address": "176 Rue Breteuil, 13006 Marseille, France",
    "postal_code": "13006",
    "city": "Marseille",
    "latitude": 43.2826485,
    "longitude": 5.3788268,
    "source_url": "https://shotgun.live/fr/venues/pata-negra-loves-u"
  },
  "planete-51": {
    "name": "Planete 51",
    "slug": "planete-51",
    "street_address": "40 Boulevard Jacques Saadé, 13002 Marseille, France",
    "postal_code": "13002",
    "city": "Marseille",
    "latitude": 43.3003721,
    "longitude": 5.364239,
    "source_url": "https://shotgun.live/fr/venues/planete-51"
  },
  "redline-production": {
    "name": "REDLINE PRODUCTION",
    "slug": "redline-production",
    "postal_code": "13010",
    "city": "Marseille",
    "latitude": 43.2858805,
    "longitude": 5.417235,
    "source_url": "https://shotgun.live/fr/venues/redline-prod"
  },
  "solstitium": {
    "name": "Solstitium",
    "slug": "solstitium",
    "street_address": "Avenue Vaudoyer, 13002 Marseille, France",
    "postal_code": "13002",
    "city": "Marseille",
    "latitude": 43.2977099,
    "longitude": 5.3634802,
    "source_url": "https://shotgun.live/fr/venues/solstitium"
  },
  "south-connexion": {
    "name": "South Connexion",
    "slug": "south-connexion",
    "street_address": "41 Rue Jobin, 13003 Marseille, France",
    "postal_code": "13003",
    "city": "Marseille",
    "latitude": 43.309633,
    "longitude": 5.3903188,
    "source_url": "https://shotgun.live/fr/venues/south-connexion-event"
  },
  "trouble-fete": {
    "name": "Trouble Fête",
    "slug": "trouble-fete",
    "street_address": "125 La Canebière, 13001 Marseille, France",
    "postal_code": "13001",
    "city": "Marseille",
    "latitude": 43.2986948,
    "longitude": 5.3830016,
    "source_url": "https://shotgun.live/fr/venues/trouble-fete"
  },
  "vertigo-marseille": {
    "name": "Vertigo Marseille",
    "slug": "vertigo-marseille",
    "street_address": "75 Rue Sainte, 13007 Marseille, France",
    "postal_code": "13007",
    "city": "Marseille",
    "latitude": 43.2915848,
    "longitude": 5.3716131,
    "source_url": "https://shotgun.live/fr/venues/vertigo-marseille"
  },
  "vice-versa-marseille": {
    "name": "vice.versa.marseille",
    "slug": "vice-versa-marseille",
    "street_address": "40 Rue des Trois Rois, 13006 Marseille, France",
    "postal_code": "13006",
    "city": "Marseille",
    "latitude": 43.293427,
    "longitude": 5.3850598,
    "source_url": "https://shotgun.live/fr/venues/vice-versa-marseille"
  }
}