{
  "6mic": {
    "name": "6MIC",
    "slug": "6mic",
    "street_address": "160 Rue Pascal Duverger, 13090 Aix-en-Provence, France",
    "postal_code": "13090",
    "city": "Aix-En-Provence",
    "latitude": 43.5192132,
    "longitude": 5.4224053,
    "source_url": "https://shotgun.live/fr/venues/6-mic"
  },
  "bi-pole": {
    "name": "Bi:pole",
    "slug": "bi-pole",
    "street_address": "41 Rue Jobin, 13003 Marseille, France",
    "postal_code": "13003",
    "city": "Marseille",
    "latitude": 43.31048,
    "longitude": 5.3901924,
    "source_url": "https://shotgun.live/fr/venues/bi-pole"
  },
  "boum-marseille": {
    "name": "BOUM Marseille",
    "slug": "boum-marseille",
    "street_address": "21 Rue André Poggioli, 13006 Marseille, France",
    "postal_code": "13006",
    "city": "Marseille",
    "latitude": 43.2934532,
    "longitude": 5.3852521,
    "source_url": "https://shotgun.live/fr/venues/boum-marseille"
  },
  "cabaret-aleatoire": {
    "name": "Cabaret Aléatoire",
    "slug": "cabaret-aleatoire",
    "street_address": "41 Rue Jobin, 13003 Marseille, France",
    "postal_code": "13003",
    "city": "Marseille",
    "latitude": 43.31048,
    "longitude": 5.3901924,
    "source_url": "https://shotgun.live/fr/venues/cabaretaleatoire"
  },
  "carlala": {
    "name": "CARLALA",
    "slug": "carlala",
    "street_address": "40 Boulevard Jacques Saadé, 13002 Marseille, France",
    "postal_code": "13002",
    "city": "Marseille",
    "latitude": 43.3003721,
    "longitude": 5.364239,
    "source_url": "https://shotgun.live/fr/venues/carlala"
  },
  "connexion-sud": {
    "name": "Connexion Sud",
    "slug": "connexion-sud",
    "street_address": "44 Rue Saint-Saëns, 13001 Marseille, France",
    "postal_code": "13001",
    "city": "Marseille",
    "latitude": 43.2931859,
    "longitude": 5.3720769,
    "source_url": "https://shotgun.live/fr/venues/connexion-sud"
  },
  "d-oz-machine": {
    "name": "D'Oz Machine",
    "slug": "d-oz-machine",
    "street_address": "40 Boulevard Jacques Saadé, 13002 Marseille, France",
    "postal_code": "13002",
    "city": "Marseille",
    "latitude": 43.3003721,
    "longitude": 5.364239,
    "source_url": "https://shotgun.live/fr/venues/d-oz-machine"
  },
  "danceteria": {
    "name": "danceteria",
    "slug": "danceteria",
    "street_address": "18 Rue Saint-Saëns, 13001 Marseille, France",
    "postal_code": "13001",
    "city": "Marseille",
    "latitude": 43.2938344,
    "longitude": 5.3751483,
    "source_url": "https://shotgun.live/fr/venues/danceteria"
  },
  "esquina-tropical": {
    "name": "Esquina tropical",
    "slug": "esquina-tropical",
    "street_address": "41 Bd Michelet Centre commercial Prado Shopping, 3ème étage, 13008 Marseille, France",
    "postal_code": "13008",
    "city": "Marseille",
    "latitude": 43.2700267,
    "longitude": 5.3936317,
    "source_url": "https://shotgun.live/fr/venues/esquina-tropical"
  },
  "inda-agengy": {
    "name": "INDA AGENGY",
    "slug": "inda-agengy",
    "street_address": "56 Promenade Général Charles de Gaulle, 83140 Six-Fours-les-Plages, France",
    "postal_code": "83140",
    "city": "Six-Fours-Les-Plages",
    "latitude": 43.1087494,
    "longitude": 5.8137627,
    "source_url": "https://shotgun.live/fr/venues/inda"
  },
  "ipn-aix-en-provence": {
    "name": "IPN Aix-en-Provence",
    "slug": "ipn-aix-en-provence",
    "street_address": "23 Cours Sextius, 13100 Aix-en-Provence, France",
    "postal_code": "13100",
    "city": "Aix-En-Provence",
    "latitude": 43.5288065,
    "longitude": 5.4440602,
    "source_url": "https://shotgun.live/fr/venues/ipnaix"
  },
  "kryptonite-events": {
    "name": "Kryptonite Events",
    "slug": "kryptonite-events",
    "street_address": "15 Rue André Poggioli, 13006 Marseille, France",
    "postal_code": "13006",
    "city": "Marseille",
    "latitude": 43.2936524,
    "longitude": 5.3853954,
    "source_url": "https://shotgun.live/fr/venues/kryptonite"
  },
  "la-traverse-de-balkis": {
    "name": "La Traverse De Balkis",
    "slug": "la-traverse-de-balkis",
    "street_address": "1 Rue des Trois Rois, 13006 Marseille, France",
    "postal_code": "13006",
    "city": "Marseille",
    "latitude": 43.2944966,
    "longitude": 5.3846011,
    "source_url": "https://shotgun.live/fr/venues/la-traverse-de-balkis"
  },
  "le-bazar": {
    "name": "LE BAZAR",
    "slug": "le-bazar",
    "street_address": "90 Boulevard Rabatau, 13008 Marseille, France",
    "postal_code": "13008",
    "city": "Marseille",
    "latitude": 43.2763808,
    "longitude": 5.397904,
    "source_url": "https://shotgun.live/fr/venues/la-palmeraie"
  },
  "le-bouge-marseille": {
    "name": "Le Bouge Marseille",
    "slug": "le-bouge-marseille",
    "street_address": "21 Cours Honoré d'Estienne d'Orves, 13001 Marseille, France",
    "postal_code": "13001",
    "city": "Marseille",
    "latitude": 43.2926142,
    "longitude": 5.37373,
    "source_url": "https://shotgun.live/fr/venues/le-bouge-marseille"
  },
  "le-chapiteau-marseille": {
    "name": "Le Chapiteau - marseille",
    "slug": "le-chapiteau-marseille",
    "street_address": "38 Traverse Notre Dame du Bon Secours, 13003 Marseille, France",
    "postal_code": "13003",
    "city": "Marseille",
    "latitude": 43.3148239,
    "longitude": 5.3862458,
    "source_url": "https://shotgun.live/fr/venues/le-chapiteau-marseille"
  },
  "le-makeda": {
    "name": "Le Makeda",
    "slug": "le-makeda",
    "street_address": "103 Rue Ferrari, 13005 Marseille, France",
    "postal_code": "13005",
    "city": "Marseille",
    "latitude": 43.2932951,
    "longitude": 5.3918093,
    "source_url": "https://shotgun.live/fr/venues/le-makeda"
  },
  "les-folies-mondaines-de-madame": {
    "name": "Les Folies Mondaines de Madame",
    "slug": "les-folies-mondaines-de-madame",
    "street_address": "195 Route des Trois Lucs à la Valentine, 13011 Marseille, France",
    "postal_code": "13011",
    "city": "Marseille",
    "latitude": 43.3018724,
    "longitude": 5.4771667,
    "source_url": "https://shotgun.live/fr/venues/lesfoliesmondaines"
  },
  "maison-m": {
    "name": "Maison M",
    "slug": "maison-m",
    "street_address": "4 boulevard Jacques Saade, 20 Place Albert Londres, 13002 Marseille, France",
    "postal_code": "13002",
    "city": "Marseille",
    "latitude": 43.2988875,
    "longitude": 5.3635505,
    "source_url": "https://shotgun.live/fr/venues/maison-m"
  },
  "manray-club": {
    "name": "Manray club",
    "slug": "manray-club",
    "street_address": "38 Rue Saint-Saëns, 13001 Marseille, France",
    "postal_code": "13001",
    "city": "Marseille",
    "latitude": 43.2932522,
    "longitude": 5.3725898,
    "source_url": "https://shotgun.live/fr/venues/manrayclub"
  },
  "origins-techno": {
    "name": "ORIGINS TECHNO",
    "slug": "origins-techno",
    "street_address": "141 Route Léon Lachamp, 13009 Marseille, France",
    "postal_code": "13009",
    "city": "Marseille",
    "latitude": 43.2489538,
    "longitude": 5.4406028,
    "source_url": "https://shotgun.live/fr/venues/origins-techno"
  },
  "rockypop-marseille": {
    "name": "RockyPop Marseille",
    "slug": "rockypop-marseille",
    "street_address": "60 Rue du Rouet, 13006 Marseille, France",
    "postal_code": "13006",
    "city": "Marseille",
    "latitude": 43.2829677,
    "longitude": 5.3871689,
    "source_url": "https://shotgun.live/fr/venues/rocky-pop-marseille"
  },
  "sprezzaclub": {
    "name": "Sprezzaclub",
    "slug": "sprezzaclub",
    "street_address": "64 Rue de la Loubière, 13006 Marseille, France",
    "postal_code": "13006",
    "city": "Marseille",
    "latitude": 43.2905044,
    "longitude": 5.3888934,
    "source_url": "https://shotgun.live/fr/venues/sprezzaclub"
  },
  "sunny-comedy-club": {
    "name": "SUNNY COMEDY CLUB",
    "slug": "sunny-comedy-club",
    "street_address": "5 Rue Jean-Marc Cathala, 13002 Marseille, France",
    "postal_code": "13002",
    "city": "Marseille",
    "latitude": 43.301299,
    "longitude": 5.3711523,
    "source_url": "https://shotgun.live/fr/venues/sunny-comedy-club"
  },
  "technopol": {
    "name": "Technopol",
    "slug": "technopol",
    "street_address": "41 Rue Jobin, 13003 Marseille, France",
    "postal_code": "13003",
    "city": "Marseille",
    "latitude": 43.31048,
    "longitude": 5.3901924,
    "source_url": "https://shotgun.live/fr/venues/technopol"
  },
  "unite-22": {
    "name": "Unité.22",
    "slug": "unite-22",
    "street_address": "22 Rue Jobin, 13003 Marseille, France",
    "postal_code": "13003",
    "city": "Marseille",
    "latitude": 43.3105232,
    "longitude": 5.389208,
    "source_url": "https://shotgun.live/fr/venues/unite-22"
  },
  "vendettek": {
    "name": "VENDETTEK",
    "slug": "vendettek",
    "street_address": "12, 14 Place Notre Dame du Mont, 13006 Marseille, France",
    "postal_code": "13006",
    "city": "Marseille",
    "latitude": 43.2919451,
    "longitude": 5.3837512,
    "source_url": "https://shotgun.live/fr/venues/vendettek"
  },
  "vertigo-marseille": {
    "name": "Vertigo Marseille",
    "slug": "vertigo-marseille",
    "street_address": "75 Rue Sainte, 13007 Marseille, France",
    "postal_code": "13007",
    "city": "Marseille",
    "latitude": 43.2915848,
    "longitude": 5.3716131,
    "source_url": "https://shotgun.live/fr/venues/vertigo-marseille"
  },
  "vice-versa-marseille": {
    "name": "vice.versa.marseille",
    "slug": "vice-versa-marseille",
    "street_address": "40 Rue des Trois Rois, 13006 Marseille, France",
    "postal_code": "13006",
    "city": "Marseille",
    "latitude": 43.293427,
    "longitude": 5.3850598,
    "source_url": "https://shotgun.live/fr/venues/vice-versa-marseille"
  },
  "village-42": {
    "name": "VILLAGE 42",
    "slug": "village-42",
    "street_address": "160 Rue Pascal Duverger, 13090 Aix-en-Provence, France",
    "postal_code": "13090",
    "city": "Aix-En-Provence",
    "latitude": 43.5192132,
    "longitude": 5.4224053,
    "source_url": "https://shotgun.live/fr/venues/village-42"
  }
}