{
  "assumrecords": {
    "name": "assumrecords",
    "slug": "assumrecords",
    "street_address": "2 Rue d'Entrecasteaux, 13100 Aix-en-Provence, France",
    "postal_code": "13100",
    "city": "Aix-En-Provence",
    "latitude": 43.5286672,
    "longitude": 5.4452034,
    "source_url": "https://shotgun.live/fr/venues/assumrecords"
  },
  "baby-club": {
    "name": "Baby club",
    "slug": "baby-club",
    "street_address": "2 Rue André Poggioli, 13006 Marseille, France",
    "postal_code": "13006",
    "city": "Marseille",
    "latitude": 43.2940988,
    "longitude": 5.3854241,
    "source_url": "https://shotgun.live/fr/venues/baby-club"
  },
  "bi-pole": {
    "name": "Bi:pole",
    "slug": "bi-pole",
    "street_address": "41 Rue Jobin, 13003 Marseille, France",
    "postal_code": "13003",
    "city": "Marseille",
    "latitude": 43.31048,
    "longitude": 5.3901924,
    "source_url": "https://shotgun.live/fr/venues/bi-pole"
  },
  "boum-marseille": {
    "name": "BOUM Marseille",
    "slug": "boum-marseille",
    "street_address": "21 Rue André Poggioli, 13006 Marseille, France",
    "postal_code": "13006",
    "city": "Marseille",
    "latitude": 43.2934532,
    "longitude": 5.3852521,
    "source_url": "https://shotgun.live/fr/venues/boum-marseille"
  },
  "bounce-club-marseille": {
    "name": "Bounce Club Marseille",
    "slug": "bounce-club-marseille",
    "street_address": "35 Cours Honoré d'Estienne d'Orves, 13001 Marseille, France",
    "postal_code": "13001",
    "city": "Marseille",
    "latitude": 43.292288,
    "longitude": 5.3723362,
    "source_url": "https://shotgun.live/fr/venues/bounce-club-marseille"
  },
  "cabaret-aleatoire": {
    "name": "Cabaret Aléatoire",
    "slug": "cabaret-aleatoire",
    "street_address": "41 Rue Jobin, 13003 Marseille, France",
    "postal_code": "13003",
    "city": "Marseille",
    "latitude": 43.309633,
    "longitude": 5.3903188,
    "source_url": "https://shotgun.live/fr/venues/cabaretaleatoire"
  },
  "coconut-groove": {
    "name": "Coconut Groove",
    "slug": "coconut-groove",
    "street_address": "2 Quai du Port, 13002 Marseille, France",
    "postal_code": "13002",
    "city": "Marseille",
    "latitude": 43.2963787,
    "longitude": 5.3736648,
    "source_url": "https://shotgun.live/fr/venues/coconut-groove"
  },
  "danceteria": {
    "name": "danceteria",
    "slug": "danceteria",
    "street_address": "18 Rue Saint-Saëns, 13001 Marseille, France",
    "postal_code": "13001",
    "city": "Marseille",
    "latitude": 43.2938344,
    "longitude": 5.3751483,
    "source_url": "https://shotgun.live/fr/venues/danceteria"
  },
  "esquina-tropical": {
    "name": "Esquina tropical",
    "slug": "esquina-tropical",
    "street_address": "64 Rue de la Loubière, 13006 Marseille, France",
    "postal_code": "13006",
    "city": "Marseille",
    "latitude": 43.2905044,
    "longitude": 5.3888934,
    "source_url": "https://shotgun.live/fr/venues/esquina-tropical"
  },
  "fatch": {
    "name": "FATCH!",
    "slug": "fatch",
    "street_address": "Belle de mai, Marseille, France",
    "city": "Aix-Marseille",
    "latitude": 43.3125677,
    "longitude": 5.3874113,
    "source_url": "https://shotgun.live/fr/venues/fatch"
  },
  "gaya-valentine": {
    "name": "GAYA VALENTINE",
    "slug": "gaya-valentine",
    "street_address": "117 Traverse de la Montre, 13011 Marseille, France",
    "postal_code": "13011",
    "city": "Marseille",
    "latitude": 43.2987466,
    "longitude": 5.4753476,
    "source_url": "https://shotgun.live/fr/venues/gaya-valentine"
  },
  "jardins-suspendus": {
    "name": "Jardins Suspendus",
    "slug": "jardins-suspendus",
    "street_address": "12 Boulevard Jacques Saadé, 13002 Marseille, France",
    "postal_code": "13002",
    "city": "Marseille",
    "latitude": 43.2994776,
    "longitude": 5.3640006,
    "source_url": "https://shotgun.live/fr/venues/jardins-suspendus"
  },
  "kumquat": {
    "name": "KUMQUAT",
    "slug": "kumquat",
    "postal_code": "13007",
    "city": "Marseille",
    "latitude": 43.2933907,
    "longitude": 5.3605993,
    "source_url": "https://shotgun.live/fr/venues/kumquat"
  },
  "la-degaine-marseille": {
    "name": "La Dégaine Marseille",
    "slug": "la-degaine-marseille",
    "street_address": "41 Bd Michelet Centre commercial Prado Shopping, 3ème étage, 13008 Marseille, France",
    "postal_code": "13008",
    "city": "Marseille",
    "latitude": 43.2700267,
    "longitude": 5.3936317,
    "source_url": "https://shotgun.live/fr/venues/la-degaine-marseille"
  },
  "la-traverse-de-balkis": {
    "name": "La Traverse De Balkis",
    "slug": "la-traverse-de-balkis",
    "street_address": "1 Rue des Trois Rois, 13006 Marseille, France",
    "postal_code": "13006",
    "city": "Marseille",
    "latitude": 43.2944966,
    "longitude": 5.3846011,
    "source_url": "https://shotgun.live/fr/venues/la-traverse-de-balkis"
  },
  "lasourceexperiences": {
    "name": "LaSourceExperiences",
    "slug": "lasourceexperiences",
    "street_address": "59 Route de Brignoles, 83136 Méounes-lès-Montrieux, France",
    "postal_code": "83136",
    "city": "Méounes-Lès-Montrieux",
    "latitude": 43.2863537,
    "longitude": 5.9752027,
    "source_url": "https://shotgun.live/fr/venues/la-source-experiences"
  },
  "le-bouge-marseille": {
    "name": "Le Bouge Marseille",
    "slug": "le-bouge-marseille",
    "street_address": "21 Cours Honoré d'Estienne d'Orves, 13001 Marseille, France",
    "postal_code": "13001",
    "city": "Marseille",
    "latitude": 43.2926142,
    "longitude": 5.37373,
    "source_url": "https://shotgun.live/fr/venues/le-bouge-marseille"
  },
  "le-chapiteau-marseille": {
    "name": "Le Chapiteau - marseille",
    "slug": "le-chapiteau-marseille",
    "street_address": "38 Traverse Notre Dame du Bon Secours, 13003 Marseille, France",
    "postal_code": "13003",
    "city": "Marseille",
    "latitude": 43.3148239,
    "longitude": 5.3862458,
    "source_url": "https://shotgun.live/fr/venues/le-chapiteau-marseille"
  },
  "le-club-du-son": {
    "name": "Le Club du Son",
    "slug": "le-club-du-son",
    "street_address": "Avenue Vaudoyer, 13002 Marseille, France",
    "postal_code": "13002",
    "city": "Marseille",
    "latitude": 43.2977099,
    "longitude": 5.3634802,
    "source_url": "https://shotgun.live/fr/venues/le-club-du-son"
  },
  "le-makeda": {
    "name": "Le Makeda",
    "slug": "le-makeda",
    "street_address": "103 Rue Ferrari, 13005 Marseille, France",
    "postal_code": "13005",
    "city": "Marseille",
    "latitude": 43.2932951,
    "longitude": 5.3918093,
    "source_url": "https://shotgun.live/fr/venues/le-makeda"
  },
  "le-potager": {
    "name": "Le Potager",
    "slug": "le-potager",
    "street_address": "40 Boulevard Jacques Saadé, 13002 Marseille, France",
    "postal_code": "13002",
    "city": "Marseille",
    "latitude": 43.3003721,
    "longitude": 5.364239,
    "source_url": "https://shotgun.live/fr/venues/le-potager"
  },
  "le-spot-mourillon": {
    "name": "Le Spot Mourillon",
    "slug": "le-spot-mourillon",
    "street_address": "57 Rue Lamalgue, 83000 Toulon, France",
    "postal_code": "83000",
    "city": "Toulon",
    "latitude": 43.1099546,
    "longitude": 5.9400604,
    "source_url": "https://shotgun.live/fr/venues/le-spot-mourillon"
  },
  "lestaminet-matinal": {
    "name": "L’estaminet matinal",
    "slug": "lestaminet-matinal",
    "street_address": "14 Place Notre Dame du Mont, 13006 Marseille, France",
    "postal_code": "13006",
    "city": "Marseille",
    "latitude": 43.2919023,
    "longitude": 5.383813,
    "source_url": "https://shotgun.live/fr/venues/l-estaminet-matinal"
  },
  "lily-marseille": {
    "name": "Lily Marseille",
    "slug": "lily-marseille",
    "street_address": "Avenue Vaudoyer, 13002 Marseille, France",
    "postal_code": "13002",
    "city": "Marseille",
    "latitude": 43.2977099,
    "longitude": 5.3634802,
    "source_url": "https://shotgun.live/fr/venues/lily-marseille"
  },
  "marsatac": {
    "name": "Marsatac",
    "slug": "marsatac",
    "street_address": "603, 623 Rue Saint-Pierre, 13012 Marseille, France",
    "postal_code": "13012",
    "city": "Marseille",
    "latitude": 43.2912608,
    "longitude": 5.4237592,
    "source_url": "https://shotgun.live/fr/venues/marsatac"
  },
  "moulin-des-costes": {
    "name": "Moulin des Costes",
    "slug": "moulin-des-costes",
    "street_address": "445 Chemin de Saint-Pierre, 13330 Pélissanne, France",
    "postal_code": "13330",
    "city": "Pélissanne",
    "latitude": 43.6373828,
    "longitude": 5.1466071,
    "source_url": "https://shotgun.live/fr/venues/moulin-des-costes"
  },
  "novotel-marseille-vieux-port": {
    "name": "NOVOTEL MARSEILLE VIEUX PORT",
    "slug": "novotel-marseille-vieux-port",
    "street_address": "36 Boulevard Charles Livon, 13007 Marseille, France",
    "postal_code": "13007",
    "city": "Marseille",
    "latitude": 43.2928312,
    "longitude": 5.360329,
    "source_url": "https://shotgun.live/fr/venues/novotel-marseille-vieux-port"
  },
  "psartek": {
    "name": "Psartek",
    "slug": "psartek",
    "street_address": "40 Boulevard Jacques Saadé, 13002 Marseille, France",
    "postal_code": "13002",
    "city": "Marseille",
    "latitude": 43.3003721,
    "longitude": 5.364239,
    "source_url": "https://shotgun.live/fr/venues/psartek"
  },
  "r2-le-rooftop": {
    "name": "R2 LE ROOFTOP",
    "slug": "r2-le-rooftop",
    "street_address": "9 Quai du Lazaret, 13002 Marseille, France",
    "postal_code": "13002",
    "city": "Marseille",
    "latitude": 43.3067576,
    "longitude": 5.364598,
    "source_url": "https://shotgun.live/fr/venues/r2-le-rooftop"
  },
  "redline-production": {
    "name": "REDLINE PRODUCTION",
    "slug": "redline-production",
    "postal_code": "13010",
    "city": "Marseille",
    "latitude": 43.2858806,
    "longitude": 5.417235,
    "source_url": "https://shotgun.live/fr/venues/redline-prod"
  },
  "rooftop-massilia-beach": {
    "name": "Rooftop Massilia Beach",
    "slug": "rooftop-massilia-beach",
    "street_address": "41 Boulevard Michelet, 13008 Marseille, France",
    "postal_code": "13008",
    "city": "Marseille",
    "latitude": 43.269827,
    "longitude": 5.3958873,
    "source_url": "https://shotgun.live/fr/venues/rooftop-massilia-beach"
  },
  "soeurs-malsaines": {
    "name": "SOEURS MALSAINES",
    "slug": "soeurs-malsaines",
    "street_address": "132 Avenue Clot Bey, 13008 Marseille, France",
    "postal_code": "13008",
    "city": "Marseille",
    "latitude": 43.2573409,
    "longitude": 5.3819763,
    "source_url": "https://shotgun.live/fr/venues/soeurs-malsaines"
  },
  "sport-beach-marseille": {
    "name": "SPORT BEACH MARSEILLE",
    "slug": "sport-beach-marseille",
    "street_address": "138 Avenue Pierre Mendès France, 13008 Marseille, France",
    "postal_code": "13008",
    "city": "Marseille",
    "latitude": 43.2555503,
    "longitude": 5.3759943,
    "source_url": "https://shotgun.live/fr/venues/sport-beach-marseille"
  },
  "sun-dancefloor": {
    "name": "Sun Dancefloor",
    "slug": "sun-dancefloor",
    "street_address": "44 Cours Julien, 13006 Marseille, France",
    "postal_code": "13006",
    "city": "Marseille",
    "latitude": 43.2947156,
    "longitude": 5.3827035,
    "source_url": "https://shotgun.live/fr/venues/sun-dancefloor"
  },
  "sunny-comedy-club": {
    "name": "SUNNY COMEDY CLUB",
    "slug": "sunny-comedy-club",
    "street_address": "5 Rue Jean-Marc Cathala, 13002 Marseille, France",
    "postal_code": "13002",
    "city": "Marseille",
    "latitude": 43.301299,
    "longitude": 5.3711523,
    "source_url": "https://shotgun.live/fr/venues/sunny-comedy-club"
  },
  "trigger-warning": {
    "name": "TRIGGER WARNING",
    "slug": "trigger-warning",
    "street_address": "141 Route Léon Lachamp, 13009 Marseille, France",
    "postal_code": "13009",
    "city": "Marseille",
    "latitude": 43.2489538,
    "longitude": 5.4406028,
    "source_url": "https://shotgun.live/fr/venues/trigger-warning"
  },
  "unite-22": {
    "name": "Unité.22",
    "slug": "unite-22",
    "street_address": "22 Rue Jobin, 13003 Marseille, France",
    "postal_code": "13003",
    "city": "Marseille",
    "latitude": 43.3105232,
    "longitude": 5.389208,
    "source_url": "https://shotgun.live/fr/venues/unite-22"
  },
  "vice-versa-marseille": {
    "name": "vice.versa.marseille",
    "slug": "vice-versa-marseille",
    "street_address": "40 Rue des Trois Rois, 13006 Marseille, France",
    "postal_code": "13006",
    "city": "Marseille",
    "latitude": 43.293427,
    "longitude": 5.3850598,
    "source_url": "https://shotgun.live/fr/venues/vice-versa-marseille"
  }
}