{
  "6mic": {
    "name": "6MIC",
    "slug": "6mic",
    "street_address": "160 Rue Pascal Duverger, 13090 Aix-en-Provence, France",
    "postal_code": "13090",
    "city": "Aix-En-Provence",
    "latitude": 43.5192132,
    "longitude": 5.4224053,
    "source_url": "https://shotgun.live/fr/venues/6-mic"
  },
  "baby-club": {
    "name": "Baby club",
    "slug": "baby-club",
    "street_address": "2 Rue André Poggioli, 13006 Marseille, France",
    "postal_code": "13006",
    "city": "Marseille",
    "latitude": 43.2940988,
    "longitude": 5.3854241,
    "source_url": "https://shotgun.live/fr/venues/baby-club"
  },
  "boum-marseille": {
    "name": "BOUM Marseille",
    "slug": "boum-marseille",
    "street_address": "21 Rue André Poggioli, 13006 Marseille, France",
    "postal_code": "13006",
    "city": "Marseille",
    "latitude": 43.2934532,
    "longitude": 5.3852521,
    "source_url": "https://shotgun.live/fr/venues/boum-marseille"
  },
  "chateau-de-sannes": {
    "name": "Château de Sannes",
    "slug": "chateau-de-sannes",
    "street_address": "1580 D37, 84240 Sannes, France",
    "postal_code": "84240",
    "city": "Sannes",
    "latitude": 43.7477841,
    "longitude": 5.4892148,
    "source_url": "https://shotgun.live/fr/venues/chateau-de-sannes"
  },
  "coconut-groove": {
    "name": "Coconut Groove",
    "slug": "coconut-groove",
    "street_address": "125 La Canebière, 13001 Marseille, France",
    "postal_code": "13001",
    "city": "Marseille",
    "latitude": 43.2986948,
    "longitude": 5.3830016,
    "source_url": "https://shotgun.live/fr/venues/coconut-groove"
  },
  "esquina-tropical": {
    "name": "Esquina tropical",
    "slug": "esquina-tropical",
    "street_address": "41 Bd Michelet Centre commercial Prado Shopping, 3ème étage, 13008 Marseille, France",
    "postal_code": "13008",
    "city": "Marseille",
    "latitude": 43.2700267,
    "longitude": 5.3936317,
    "source_url": "https://shotgun.live/fr/venues/esquina-tropical"
  },
  "hemera": {
    "name": "HEMERA",
    "slug": "hemera",
    "street_address": "23 Avenue de Corinthe, 13006 Marseille, France",
    "postal_code": "13006",
    "city": "Marseille",
    "latitude": 43.2833916,
    "longitude": 5.3904224,
    "source_url": "https://shotgun.live/fr/venues/hemera"
  },
  "honey-b": {
    "name": "Honey B",
    "slug": "honey-b",
    "street_address": "41 Bd Michelet Centre commercial Prado Shopping, 3ème étage, 13008 Marseille, France",
    "postal_code": "13008",
    "city": "Marseille",
    "latitude": 43.2700267,
    "longitude": 5.3936317,
    "source_url": "https://shotgun.live/fr/venues/honey-b"
  },
  "ipn-aix-en-provence": {
    "name": "IPN Aix-en-Provence",
    "slug": "ipn-aix-en-provence",
    "street_address": "23 Cours Sextius, 13100 Aix-en-Provence, France",
    "postal_code": "13100",
    "city": "Aix-En-Provence",
    "latitude": 43.5288065,
    "longitude": 5.4440602,
    "source_url": "https://shotgun.live/fr/venues/ipnaix"
  },
  "la-plateforme": {
    "name": "La Plateforme_",
    "slug": "la-plateforme",
    "street_address": "12 Rue Urbain V, 13002 Marseille, France",
    "postal_code": "13002",
    "city": "Marseille",
    "latitude": 43.3152312,
    "longitude": 5.3680155,
    "source_url": "https://shotgun.live/fr/venues/la-plateforme"
  },
  "la-traverse-de-balkis": {
    "name": "La Traverse De Balkis",
    "slug": "la-traverse-de-balkis",
    "street_address": "1 Rue des Trois Rois, 13006 Marseille, France",
    "postal_code": "13006",
    "city": "Marseille",
    "latitude": 43.2944966,
    "longitude": 5.3846011,
    "source_url": "https://shotgun.live/fr/venues/la-traverse-de-balkis"
  },
  "lamuse-gueule-comedy-club": {
    "name": "L’amuse gueule Comedy club",
    "slug": "lamuse-gueule-comedy-club",
    "street_address": "123 Cours Lieutaud, 13006 Marseille, France",
    "postal_code": "13006",
    "city": "Marseille",
    "latitude": 43.2882067,
    "longitude": 5.3848611,
    "source_url": "https://shotgun.live/fr/venues/l-amuse-gueule-comedy-club"
  },
  "le-bouge-marseille": {
    "name": "Le Bouge Marseille",
    "slug": "le-bouge-marseille",
    "street_address": "21 Cours Honoré d'Estienne d'Orves, 13001 Marseille, France",
    "postal_code": "13001",
    "city": "Marseille",
    "latitude": 43.2926142,
    "longitude": 5.37373,
    "source_url": "https://shotgun.live/fr/venues/le-bouge-marseille"
  },
  "le-chapiteau-marseille": {
    "name": "Le Chapiteau - marseille",
    "slug": "le-chapiteau-marseille",
    "street_address": "38 Traverse Notre Dame du Bon Secours, 13003 Marseille, France",
    "postal_code": "13003",
    "city": "Marseille",
    "latitude": 43.3148239,
    "longitude": 5.3862458,
    "source_url": "https://shotgun.live/fr/venues/le-chapiteau-marseille"
  },
  "le-makeda": {
    "name": "Le Makeda",
    "slug": "le-makeda",
    "street_address": "103 Rue Ferrari, 13005 Marseille, France",
    "postal_code": "13005",
    "city": "Marseille",
    "latitude": 43.2932951,
    "longitude": 5.3918093,
    "source_url": "https://shotgun.live/fr/venues/le-makeda"
  },
  "limonerooftop": {
    "name": "LimoneRooftop",
    "slug": "limonerooftop",
    "street_address": "756 Avenue Emile Bodin, 13600 La Ciotat, France",
    "postal_code": "13600",
    "city": "La Ciotat",
    "latitude": 43.1916298,
    "longitude": 5.6028899,
    "source_url": "https://shotgun.live/fr/venues/limone-rooftop"
  },
  "mooddemars": {
    "name": "Mooddemars",
    "slug": "mooddemars",
    "street_address": "5 Avenue des Ormeaux, 13500 Martigues, France",
    "postal_code": "13500",
    "city": "Martigues",
    "latitude": 43.4102181,
    "longitude": 5.0252758,
    "source_url": "https://shotgun.live/fr/venues/mooddemars"
  },
  "nhow-marseille": {
    "name": "Nhow Marseille",
    "slug": "nhow-marseille",
    "street_address": "200 Corniche Président John Fitzgerald Kennedy, 13007 Marseille, France",
    "postal_code": "13007",
    "city": "Marseille",
    "latitude": 43.268758,
    "longitude": 5.3685,
    "source_url": "https://shotgun.live/fr/venues/nhow-marseille"
  },
  "ourasi-event": {
    "name": "ourasi event",
    "slug": "ourasi-event",
    "street_address": "123 Cours Lieutaud, 13006 Marseille, France",
    "postal_code": "13006",
    "city": "Marseille",
    "latitude": 43.2882067,
    "longitude": 5.3848611,
    "source_url": "https://shotgun.live/fr/venues/ourasi-event"
  },
  "r2-le-rooftop": {
    "name": "R2 LE ROOFTOP",
    "slug": "r2-le-rooftop",
    "street_address": "9 Quai du Lazaret, 13002 Marseille, France",
    "postal_code": "13002",
    "city": "Marseille",
    "latitude": 43.3067576,
    "longitude": 5.364598,
    "source_url": "https://shotgun.live/fr/venues/r2-le-rooftop"
  },
  "rockypop-marseille": {
    "name": "RockyPop Marseille",
    "slug": "rockypop-marseille",
    "street_address": "60 Rue du Rouet, 13006 Marseille, France",
    "postal_code": "13006",
    "city": "Marseille",
    "latitude": 43.2829677,
    "longitude": 5.3871689,
    "source_url": "https://shotgun.live/fr/venues/rocky-pop-marseille"
  },
  "snippet-party": {
    "name": "Snippet Party",
    "slug": "snippet-party",
    "street_address": "44 Cours Julien, 13006 Marseille, France",
    "postal_code": "13006",
    "city": "Marseille",
    "latitude": 43.2947156,
    "longitude": 5.3827035,
    "source_url": "https://shotgun.live/fr/venues/snippet-party"
  },
  "sport-beach-marseille": {
    "name": "SPORT BEACH MARSEILLE",
    "slug": "sport-beach-marseille",
    "street_address": "138 Avenue Pierre Mendès France, 13008 Marseille, France",
    "postal_code": "13008",
    "city": "Marseille",
    "latitude": 43.2555503,
    "longitude": 5.3759943,
    "source_url": "https://shotgun.live/fr/venues/sport-beach-marseille"
  },
  "sunny-comedy-club": {
    "name": "SUNNY COMEDY CLUB",
    "slug": "sunny-comedy-club",
    "street_address": "5 Rue Jean-Marc Cathala, 13002 Marseille, France",
    "postal_code": "13002",
    "city": "Marseille",
    "latitude": 43.301299,
    "longitude": 5.3711523,
    "source_url": "https://shotgun.live/fr/venues/sunny-comedy-club"
  },
  "sunrave": {
    "name": "SUNRAVE",
    "slug": "sunrave",
    "street_address": "40 Boulevard Jacques Saadé, 13002 Marseille, France",
    "postal_code": "13002",
    "city": "Marseille",
    "latitude": 43.3003721,
    "longitude": 5.364239,
    "source_url": "https://shotgun.live/fr/venues/sunrave"
  },
  "toupie-sound": {
    "name": "TOUPIE SOUND",
    "slug": "toupie-sound",
    "street_address": "44 Cours Julien, 13006 Marseille, France",
    "postal_code": "13006",
    "city": "Marseille",
    "latitude": 43.2947156,
    "longitude": 5.3827035,
    "source_url": "https://shotgun.live/fr/venues/toupiesound"
  },
  "unite-22": {
    "name": "Unité.22",
    "slug": "unite-22",
    "street_address": "22 Rue Jobin, 13003 Marseille, France",
    "postal_code": "13003",
    "city": "Marseille",
    "latitude": 43.3105232,
    "longitude": 5.389208,
    "source_url": "https://shotgun.live/fr/venues/unite-22"
  },
  "vendettek": {
    "name": "VENDETTEK",
    "slug": "vendettek",
    "street_address": "12, 14 Place Notre Dame du Mont, 13006 Marseille, France",
    "postal_code": "13006",
    "city": "Marseille",
    "latitude": 43.2919451,
    "longitude": 5.3837512,
    "source_url": "https://shotgun.live/fr/venues/vendettek"
  },
  "vice-versa-marseille": {
    "name": "vice.versa.marseille",
    "slug": "vice-versa-marseille",
    "street_address": "40 Rue des Trois Rois, 13006 Marseille, France",
    "postal_code": "13006",
    "city": "Marseille",
    "latitude": 43.293427,
    "longitude": 5.3850598,
    "source_url": "https://shotgun.live/fr/venues/vice-versa-marseille"
  }
}